{
  "data": [
    {
      "location_id": "102265",
      "name": "Casa Cantina Restaurant",
      "address_obj": {
        "street1": "433 College Avenue West",
        "city": "Barrie",
        "state": "ON",
        "postalcode": "L7E 4Q8",
        "country": "Canada",
        "latitude": "44.389897",
        "longitude": "-79.699836"
      },
      "rating": "3.1",
      "num_reviews": "18",
      "web_url": "https://www.tripadvisor.com/Restaurant_Review-g154979-d102265-Reviews-Casa_Cantina_Restaurant-Barrie_ON.html",
      "subcategory": [
        {
          "name": "Mexican",
          "localized_name": "Mexican"
        }
      ]
    },
    {
      "location_id": "859769",
      "name": "Casa Cantina",
      "address_obj": {
        "street1": "81 Yonge Street North",
        "city": "Barrie",
        "state": "ON",
        "postalcode": "L6Y 3A8",
        "country": "Canada",
        "latitude": "44.388135",
        "longitude": "-79.681094"
      },
      "rating": "4.6",
      "num_reviews": "39",
      "web_url": "https://www.tripadvisor.com/Restaurant_Review-g154979-d859769-Reviews-Casa_Cantina-Barrie_ON.html",
      "subcategory": [
        {
          "name": "Mexican",
          "localized_name": "Mexican"
        }
      ]
    },
    {
      "location_id": "519748",
      "name": "Nonna's Cucina",
      "address_obj": {
        "street1": "760 Main Avenue South",
        "city": "Barrie",
        "state": "ON",
        "postalcode": "L3N 9Y8",
        "country": "Canada",
        "latitude": "44.382062",
        "longitude": "-79.695763"
      },
      "rating": "4.6",
      "num_reviews": "83",
      "web_url": "https://www.tripadvisor.com/Restaurant_Review-g154979-d519748-Reviews-Nonna's_Cucina-Barrie_ON.html",
      "subcategory": [
        {
          "name": "Italian",
          "localized_name": "Italian"
        }
      ]
    },
    {
      "location_id": "785944",
      "name": "Brew Coffee Restaurant",
      "address_obj": {
        "street1": "825 Main Street North",
        "city": "Barrie",
        "state": "ON",
        "postalcode": "L3A 3Q5",
        "country": "Canada",
        "latitude": "44.398399",
        "longitude": "-79.691903"
      },
      "rating": "5.0",
      "num_reviews": "95",
      "web_url": "https://www.tripadvisor.com/Restaurant_Review-g154979-d785944-Reviews-Brew_Coffee_Restaurant-Barrie_ON.html",
      "subcategory": [
        {
          "name": "Coffee",
          "localized_name": "Coffee"
        }
      ]
    },
    {
      "location_id": "270616",
      "name": "The Burger Joint",
      "address_obj": {
        "street1": "539 College Boulevard West",
        "city": "Barrie",
        "state": "ON",
        "postalcode": "L6R 9U0",
        "country": "Canada",
        "latitude": "44.395747",
        "longitude": "-79.681021"
      },
      "rating": "4.8",
      "num_reviews": "80",
      "web_url": "https://www.tripadvisor.com/Restaurant_Review-g154979-d270616-Reviews-The_Burger_Joint-Barrie_ON.html",
      "subcategory": [
        {
          "name": "Burgers",
          "localized_name": "Burgers"
        }
      ]
    },
    {
      "location_id": "465056",
      "name": "Hop Craft Brewery Restaurant",
      "address_obj": {
        "street1": "774 King Boulevard East",
        "city": "Barrie",
        "state": "ON",
        "postalcode": "L9J 4F2",
        "country": "Canada",
        "latitude": "44.39573",
        "longitude": "-79.69116"
      },
      "rating": "4.6",
      "num_reviews": "11",
      "web_url": "https://www.tripadvisor.com/Restaurant_Review-g154979-d465056-Reviews-Hop_Craft_Brewery_Restaurant-Barrie_ON.html",
      "subcategory": [
        {
          "name": "Breweries",
          "localized_name": "Breweries"
        }
      ]
    },
    {
      "location_id": "308699",
      "name": "Taj Masala Restaurant",
      "address_obj": {
        "street1": "190 Robson Lane",
        "city": "Barrie",
        "state": "ON",
        "postalcode": "L3Z 2Q7",
        "country": "Canada",
        "latitude": "44.385359",
        "longitude": "-79.691262"
      },
      "rating": "4.8",
      "num_reviews": "21",
      "web_url": "https://www.tripadvisor.com/Restaurant_Review-g154979-d308699-Reviews-Taj_Masala_Restaurant-Barrie_ON.html",
      "subcategory": [
        {
          "name": "Indian",
          "localized_name": "Indian"
        }
      ]
    },
    {
      "location_id": "806529",
      "name": "Royal Thai House",
      "address_obj": {
        "street1": "324 Maple Avenue South",
        "city": "Barrie",
        "state": "ON",
        "postalcode": "L0V 5D0",
        "country": "Canada",
        "latitude": "44.382121",
        "longitude": "-79.69155"
      },
      "rating": "3.9",
      "num_reviews": "4981",
      "web_url": "https://www.tripadvisor.com/Restaurant_Review-g154979-d806529-Reviews-Royal_Thai_House-Barrie_ON.html",
      "subcategory": [
        {
          "name": "Thai",
          "localized_name": "Thai"
        }
      ]
    },
    {
      "location_id": "935700",
      "name": "Bean Espresso Bar Restaurant",
      "address_obj": {
        "street1": "965 King Road North",
        "city": "Barrie",
        "state": "ON",
        "postalcode": "L4S 2W5",
        "country": "Canada",
        "latitude": "44.3849",
        "longitude": "-79.696777"
      },
      "rating": "3.8",
      "num_reviews": "753",
      "web_url": "https://www.tripadvisor.com/Restaurant_Review-g154979-d935700-Reviews-Bean_Espresso_Bar_Restaurant-Barrie_ON.html",
      "subcategory": [
        {
          "name": "Coffee",
          "localized_name": "Coffee"
        }
      ]
    },
    {
      "location_id": "133609",
      "name": "Casa Burrito Bar",
      "address_obj": {
        "street1": "796 Yonge Lane North",
        "city": "Barrie",
        "state": "ON",
        "postalcode": "L7A 1Z9",
        "country": "Canada",
        "latitude": "44.379832",
        "longitude": "-79.681458"
      },
      "rating": "4.3",
      "num_reviews": "3912",
      "web_url": "https://www.tripadvisor.com/Restaurant_Review-g154979-d133609-Reviews-Casa_Burrito_Bar-Barrie_ON.html",
      "subcategory": [
        {
          "name": "Mexican",
          "localized_name": "Mexican"
        }
      ]
    },
    {
      "location_id": "169199",
      "name": "Tokyo Sushi Restaurant",
      "address_obj": {
        "street1": "920 Main Drive West",
        "city": "Barrie",
        "state": "ON",
        "postalcode": "L0W 6F0",
        "country": "Canada",
        "latitude": "44.395636",
        "longitude": "-79.691678"
      },
      "rating": "5.0",
      "num_reviews": "55",
      "web_url": "https://www.tripadvisor.com/Restaurant_Review-g154979-d169199-Reviews-Tokyo_Sushi_Restaurant-Barrie_ON.html",
      "subcategory": [
        {
          "name": "Sushi",
          "localized_name": "Sushi"
        }
      ]
    },
    {
      "location_id": "929276",
      "name": "Tokyo Japanese Restaurant",
      "address_obj": {
        "street1": "446 Yonge Drive West",
        "city": "Barrie",
        "state": "ON",
        "postalcode": "L6E 9V1",
        "country": "Canada",
        "latitude": "44.397961",
        "longitude": "-79.698351"
      },
      "rating": "4.6",
      "num_reviews": "419",
      "web_url": "https://www.tripadvisor.com/Restaurant_Review-g154979-d929276-Reviews-Tokyo_Japanese_Restaurant-Barrie_ON.html",
      "subcategory": [
        {
          "name": "Sushi",
          "localized_name": "Sushi"
        }
      ]
    },
    {
      "location_id": "106107",
      "name": "Barrel Taproom",
      "address_obj": {
        "street1": "136 Bloor Street North",
        "city": "Barrie",
        "state": "ON",
        "postalcode": "L6C 9P5",
        "country": "Canada",
        "latitude": "44.398369",
        "longitude": "-79.683689"
      },
      "rating": "1.9",
      "num_reviews": "44",
      "web_url": "https://www.tripadvisor.com/Restaurant_Review-g154979-d106107-Reviews-Barrel_Taproom-Barrie_ON.html",
      "subcategory": [
        {
          "name": "Breweries",
          "localized_name": "Breweries"
        }
      ]
    },
    {
      "location_id": "581043",
      "name": "Hop Taproom Restaurant",
      "address_obj": {
        "street1": "826 College Drive North",
        "city": "Barrie",
        "state": "ON",
        "postalcode": "L9Y 9P2",
        "country": "Canada",
        "latitude": "44.40391",
        "longitude": "-79.689935"
      },
      "rating": "3.9",
      "num_reviews": "209",
      "web_url": "https://www.tripadvisor.com/Restaurant_Review-g154979-d581043-Reviews-Hop_Taproom_Restaurant-Barrie_ON.html",
      "subcategory": [
        {
          "name": "Breweries",
          "localized_name": "Breweries"
        }
      ]
    },
    {
      "location_id": "243789",
      "name": "Sweet Bakery",
      "address_obj": {
        "street1": "776 Bloor Road North",
        "city": "Barrie",
        "state": "ON",
        "postalcode": "L1N 2T0",
        "country": "Canada",
        "latitude": "44.411158",
        "longitude": "-79.674719"
      },
      "rating": "3.6",
      "num_reviews": "422",
      "web_url": "https://www.tripadvisor.com/Restaurant_Review-g154979-d243789-Reviews-Sweet_Bakery-Barrie_ON.html",
      "subcategory": [
        {
          "name": "Bakeries",
          "localized_name": "Bakeries"
        }
      ]
    },
    {
      "location_id": "859368",
      "name": "Taj Indian Restaurant",
      "address_obj": {
        "street1": "813 King Road North",
        "city": "Barrie",
        "state": "ON",
        "postalcode": "L6T 9P4",
        "country": "Canada",
        "latitude": "44.41835",
        "longitude": "-79.68138"
      },
      "rating": "4.7",
      "num_reviews": "4086",
      "web_url": "https://www.tripadvisor.com/Restaurant_Review-g154979-d859368-Reviews-Taj_Indian_Restaurant-Barrie_ON.html",
      "subcategory": [
        {
          "name": "Indian",
          "localized_name": "Indian"
        }
      ]
    },
    {
      "location_id": "526478",
      "name": "Bella Osteria",
      "address_obj": {
        "street1": "591 Robson Boulevard",
        "city": "Barrie",
        "state": "ON",
        "postalcode": "L8Y 8G0",
        "country": "Canada",
        "latitude": "44.414764",
        "longitude": "-79.676339"
      },
      "rating": "2.3",
      "num_reviews": "788",
      "web_url": "https://www.tripadvisor.com/Restaurant_Review-g154979-d526478-Reviews-Bella_Osteria-Barrie_ON.html",
      "subcategory": [
        {
          "name": "Italian",
          "localized_name": "Italian"
        }
      ]
    },
    {
      "location_id": "226645",
      "name": "Burger Burger Bar",
      "address_obj": {
        "street1": "64 College Road West",
        "city": "Barrie",
        "state": "ON",
        "postalcode": "L8B 6S7",
        "country": "Canada",
        "latitude": "44.409918",
        "longitude": "-79.686079"
      },
      "rating": "4.3",
      "num_reviews": "25",
      "web_url": "https://www.tripadvisor.com/Restaurant_Review-g154979-d226645-Reviews-Burger_Burger_Bar-Barrie_ON.html",
      "subcategory": [
        {
          "name": "Burgers",
          "localized_name": "Burgers"
        }
      ]
    },
    {
      "location_id": "774532",
      "name": "Dragon Izakaya",
      "address_obj": {
        "street1": "971 Granville Avenue",
        "city": "Barrie",
        "state": "ON",
        "postalcode": "L7H 8V4",
        "country": "Canada",
        "latitude": "44.41651",
        "longitude": "-79.676149"
      },
      "rating": "3.8",
      "num_reviews": "58",
      "web_url": "https://www.tripadvisor.com/Restaurant_Review-g154979-d774532-Reviews-Dragon_Izakaya-Barrie_ON.html",
      "subcategory": [
        {
          "name": "Sushi",
          "localized_name": "Sushi"
        }
      ]
    },
    {
      "location_id": "720829",
      "name": "Se単or Tacos",
      "address_obj": {
        "street1": "572 Granville Road",
        "city": "Barrie",
        "state": "ON",
        "postalcode": "L6R 4J9",
        "country": "Canada",
        "latitude": "44.402388",
        "longitude": "-79.67973"
      },
      "rating": "3.8",
      "num_reviews": "143",
      "web_url": "https://www.tripadvisor.com/Restaurant_Review-g154979-d720829-Reviews-Se単or_Tacos-Barrie_ON.html",
      "subcategory": [
        {
          "name": "Mexican",
          "localized_name": "Mexican"
        }
      ]
    },
    {
      "location_id": "456812",
      "name": "Osaka Izakaya",
      "address_obj": {
        "street1": "727 King Lane South",
        "city": "Barrie",
        "state": "ON",
        "postalcode": "L1W 5A6",
        "country": "Canada",
        "latitude": "44.404525",
        "longitude": "-79.688936"
      },
      "rating": "4.9",
      "num_reviews": "3093",
      "web_url": "https://www.tripadvisor.com/Restaurant_Review-g154979-d456812-Reviews-Osaka_Izakaya-Barrie_ON.html",
      "subcategory": [
        {
          "name": "Sushi",
          "localized_name": "Sushi"
        }
      ]
    },
    {
      "location_id": "103396",
      "name": "Luigi's Osteria",
      "address_obj": {
        "street1": "807 Yonge Road West",
        "city": "Barrie",
        "state": "ON",
        "postalcode": "L1W 8S3",
        "country": "Canada",
        "latitude": "44.40371",
        "longitude": "-79.673911"
      },
      "rating": "4.9",
      "num_reviews": "198",
      "web_url": "https://www.tripadvisor.com/Restaurant_Review-g154979-d103396-Reviews-Luigi's_Osteria-Barrie_ON.html",
      "subcategory": [
        {
          "name": "Italian",
          "localized_name": "Italian"
        }
      ]
    },
    {
      "location_id": "687816",
      "name": "Burger Burgers",
      "address_obj": {
        "street1": "941 Bloor Boulevard North",
        "city": "Barrie",
        "state": "ON",
        "postalcode": "L4X 3J8",
        "country": "Canada",
        "latitude": "44.371869",
        "longitude": "-79.699413"
      },
      "rating": "3.1",
      "num_reviews": "25",
      "web_url": "https://www.tripadvisor.com/Restaurant_Review-g154979-d687816-Reviews-Burger_Burgers-Barrie_ON.html",
      "subcategory": [
        {
          "name": "Burgers",
          "localized_name": "Burgers"
        }
      ]
    },
    {
      "location_id": "606063",
      "name": "India Curry House Restaurant",
      "address_obj": {
        "street1": "98 Yonge Street North",
        "city": "Barrie",
        "state": "ON",
        "postalcode": "L8A 7H6",
        "country": "Canada",
        "latitude": "44.376965",
        "longitude": "-79.693333"
      },
      "rating": "2.3",
      "num_reviews": "9",
      "web_url": "https://www.tripadvisor.com/Restaurant_Review-g154979-d606063-Reviews-India_Curry_House_Restaurant-Barrie_ON.html",
      "subcategory": [
        {
          "name": "Indian",
          "localized_name": "Indian"
        }
      ]
    },
    {
      "location_id": "620388",
      "name": "Flying Craft Brewery",
      "address_obj": {
        "street1": "336 King Boulevard South",
        "city": "Barrie",
        "state": "ON",
        "postalcode": "L4Q 3Z4",
        "country": "Canada",
        "latitude": "44.375284",
        "longitude": "-79.705739"
      },
      "rating": "4.4",
      "num_reviews": "353",
      "web_url": "https://www.tripadvisor.com/Restaurant_Review-g154979-d620388-Reviews-Flying_Craft_Brewery-Barrie_ON.html",
      "subcategory": [
        {
          "name": "Breweries",
          "localized_name": "Breweries"
        }
      ]
    },
    {
      "location_id": "812344",
      "name": "Casa Tacos Restaurant",
      "address_obj": {
        "street1": "805 Maple Lane North",
        "city": "Barrie",
        "state": "ON",
        "postalcode": "L3L 0L4",
        "country": "Canada",
        "latitude": "44.374937",
        "longitude": "-79.692809"
      },
      "rating": "4.0",
      "num_reviews": "45",
      "web_url": "https://www.tripadvisor.com/Restaurant_Review-g154979-d812344-Reviews-Casa_Tacos_Restaurant-Barrie_ON.html",
      "subcategory": [
        {
          "name": "Mexican",
          "localized_name": "Mexican"
        }
      ]
    },
    {
      "location_id": "885908",
      "name": "Spice Thai Restaurant Restaurant",
      "address_obj": {
        "street1": "129 Queen Lane South",
        "city": "Barrie",
        "state": "ON",
        "postalcode": "L2D 2I5",
        "country": "Canada",
        "latitude": "44.376966",
        "longitude": "-79.701317"
      },
      "rating": "4.9",
      "num_reviews": "171",
      "web_url": "https://www.tripadvisor.com/Restaurant_Review-g154979-d885908-Reviews-Spice_Thai_Restaurant_Restaurant-Barrie_ON.html",
      "subcategory": [
        {
          "name": "Thai",
          "localized_name": "Thai"
        }
      ]
    },
    {
      "location_id": "340991",
      "name": "Pho Vietnamese Restaurant Restaurant",
      "address_obj": {
        "street1": "113 College Lane East",
        "city": "Barrie",
        "state": "ON",
        "postalcode": "L2N 6N5",
        "country": "Canada",
        "latitude": "44.370166",
        "longitude": "-79.70374"
      },
      "rating": "4.7",
      "num_reviews": "15",
      "web_url": "https://www.tripadvisor.com/Restaurant_Review-g154979-d340991-Reviews-Pho_Vietnamese_Restaurant_Restaurant-Barrie_ON.html",
      "subcategory": [
        {
          "name": "Vietnamese",
          "localized_name": "Vietnamese"
        }
      ]
    },
    {
      "location_id": "780546",
      "name": "Urban Boulangerie Restaurant",
      "address_obj": {
        "street1": "347 Maple Road North",
        "city": "Barrie",
        "state": "ON",
        "postalcode": "L2P 7T3",
        "country": "Canada",
        "latitude": "44.376683",
        "longitude": "-79.698774"
      },
      "rating": "3.6",
      "num_reviews": "30",
      "web_url": "https://www.tripadvisor.com/Restaurant_Review-g154979-d780546-Reviews-Urban_Boulangerie_Restaurant-Barrie_ON.html",
      "subcategory": [
        {
          "name": "Bakeries",
          "localized_name": "Bakeries"
        }
      ]
    },
    {
      "location_id": "419552",
      "name": "India Tandoori",
      "address_obj": {
        "street1": "500 Pine Lane South",
        "city": "Barrie",
        "state": "ON",
        "postalcode": "L4F 7U3",
        "country": "Canada",
        "latitude": "44.377168",
        "longitude": "-79.707379"
      },
      "rating": "4.6",
      "num_reviews": "82",
      "web_url": "https://www.tripadvisor.com/Restaurant_Review-g154979-d419552-Reviews-India_Tandoori-Barrie_ON.html",
      "subcategory": [
        {
          "name": "Indian",
          "localized_name": "Indian"
        }
      ]
    },
    {
      "location_id": "390717",
      "name": "Pho Pho House",
      "address_obj": {
        "street1": "101 King Lane East",
        "city": "Barrie",
        "state": "ON",
        "postalcode": "L8A 5S3",
        "country": "Canada",
        "latitude": "44.379861",
        "longitude": "-79.696551"
      },
      "rating": "5.0",
      "num_reviews": "100",
      "web_url": "https://www.tripadvisor.com/Restaurant_Review-g154979-d390717-Reviews-Pho_Pho_House-Barrie_ON.html",
      "subcategory": [
        {
          "name": "Vietnamese",
          "localized_name": "Vietnamese"
        }
      ]
    },
    {
      "location_id": "923382",
      "name": "Casa Cantina",
      "address_obj": {
        "street1": "602 Pine Road",
        "city": "Barrie",
        "state": "ON",
        "postalcode": "L4D 9V5",
        "country": "Canada",
        "latitude": "44.388082",
        "longitude": "-79.666881"
      },
      "rating": "4.8",
      "num_reviews": "87",
      "web_url": "https://www.tripadvisor.com/Restaurant_Review-g154979-d923382-Reviews-Casa_Cantina-Barrie_ON.html",
      "subcategory": [
        {
          "name": "Mexican",
          "localized_name": "Mexican"
        }
      ]
    },
    {
      "location_id": "100207",
      "name": "Samurai Ramen House Restaurant",
      "address_obj": {
        "street1": "98 King Road South",
        "city": "Barrie",
        "state": "ON",
        "postalcode": "L8Y 7X2",
        "country": "Canada",
        "latitude": "44.385838",
        "longitude": "-79.674028"
      },
      "rating": "4.5",
      "num_reviews": "197",
      "web_url": "https://www.tripadvisor.com/Restaurant_Review-g154979-d100207-Reviews-Samurai_Ramen_House_Restaurant-Barrie_ON.html",
      "subcategory": [
        {
          "name": "Sushi",
          "localized_name": "Sushi"
        }
      ]
    },
    {
      "location_id": "770177",
      "name": "Golden Thai House Restaurant",
      "address_obj": {
        "street1": "412 Oak Lane West",
        "city": "Barrie",
        "state": "ON",
        "postalcode": "L5J 3K4",
        "country": "Canada",
        "latitude": "44.390881",
        "longitude": "-79.67759"
      },
      "rating": "2.9",
      "num_reviews": "3949",
      "web_url": "https://www.tripadvisor.com/Restaurant_Review-g154979-d770177-Reviews-Golden_Thai_House_Restaurant-Barrie_ON.html",
      "subcategory": [
        {
          "name": "Thai",
          "localized_name": "Thai"
        }
      ]
    },
    {
      "location_id": "530291",
      "name": "Rising Artisan Bakery Restaurant",
      "address_obj": {
        "street1": "153 Granville Lane West",
        "city": "Barrie",
        "state": "ON",
        "postalcode": "L4Q 4R9",
        "country": "Canada",
        "latitude": "44.394126",
        "longitude": "-79.666968"
      },
      "rating": "4.6",
      "num_reviews": "466",
      "web_url": "https://www.tripadvisor.com/Restaurant_Review-g154979-d530291-Reviews-Rising_Artisan_Bakery_Restaurant-Barrie_ON.html",
      "subcategory": [
        {
          "name": "Bakeries",
          "localized_name": "Bakeries"
        }
      ]
    },
    {
      "location_id": "182571",
      "name": "Bangkok Thai House",
      "address_obj": {
        "street1": "60 Maple Street North",
        "city": "Barrie",
        "state": "ON",
        "postalcode": "L0Z 5Q8",
        "country": "Canada",
        "latitude": "44.377015",
        "longitude": "-79.674946"
      },
      "rating": "4.7",
      "num_reviews": "49",
      "web_url": "https://www.tripadvisor.com/Restaurant_Review-g154979-d182571-Reviews-Bangkok_Thai_House-Barrie_ON.html",
      "subcategory": [
        {
          "name": "Thai",
          "localized_name": "Thai"
        }
      ]
    },
    {
      "location_id": "344792",
      "name": "Java Coffee",
      "address_obj": {
        "street1": "880 Queen Lane West",
        "city": "Barrie",
        "state": "ON",
        "postalcode": "L8H 9G1",
        "country": "Canada",
        "latitude": "44.392164",
        "longitude": "-79.681959"
      },
      "rating": "4.0",
      "num_reviews": "38",
      "web_url": "https://www.tripadvisor.com/Restaurant_Review-g154979-d344792-Reviews-Java_Coffee-Barrie_ON.html",
      "subcategory": [
        {
          "name": "Coffee",
          "localized_name": "Coffee"
        }
      ]
    },
    {
      "location_id": "240553",
      "name": "Se単or Cantina",
      "address_obj": {
        "street1": "396 Bay Street South",
        "city": "Barrie",
        "state": "ON",
        "postalcode": "L6N 9A2",
        "country": "Canada",
        "latitude": "44.378832",
        "longitude": "-79.68326"
      },
      "rating": "3.8",
      "num_reviews": "62",
      "web_url": "https://www.tripadvisor.com/Restaurant_Review-g154979-d240553-Reviews-Se単or_Cantina-Barrie_ON.html",
      "subcategory": [
        {
          "name": "Mexican",
          "localized_name": "Mexican"
        }
      ]
    },
    {
      "location_id": "112352",
      "name": "Mario's Trattoria",
      "address_obj": {
        "street1": "97 Oak Lane South",
        "city": "Barrie",
        "state": "ON",
        "postalcode": "L9V 6W6",
        "country": "Canada",
        "latitude": "44.376265",
        "longitude": "-79.66932"
      },
      "rating": "4.9",
      "num_reviews": "72",
      "web_url": "https://www.tripadvisor.com/Restaurant_Review-g154979-d112352-Reviews-Mario's_Trattoria-Barrie_ON.html",
      "subcategory": [
        {
          "name": "Italian",
          "localized_name": "Italian"
        }
      ]
    },
    {
      "location_id": "460598",
      "name": "Koi Ramen House",
      "address_obj": {
        "street1": "546 Main Street East",
        "city": "Barrie",
        "state": "ON",
        "postalcode": "L0I 1A8",
        "country": "Canada",
        "latitude": "44.380738",
        "longitude": "-79.670127"
      },
      "rating": "4.6",
      "num_reviews": "424",
      "web_url": "https://www.tripadvisor.com/Restaurant_Review-g154979-d460598-Reviews-Koi_Ramen_House-Barrie_ON.html",
      "subcategory": [
        {
          "name": "Sushi",
          "localized_name": "Sushi"
        }
      ]
    },
    {
      "location_id": "335243",
      "name": "Big Burger Bar",
      "address_obj": {
        "street1": "513 Main Avenue North",
        "city": "Barrie",
        "state": "ON",
        "postalcode": "L0Y 9I0",
        "country": "Canada",
        "latitude": "44.376404",
        "longitude": "-79.667433"
      },
      "rating": "4.2",
      "num_reviews": "1942",
      "web_url": "https://www.tripadvisor.com/Restaurant_Review-g154979-d335243-Reviews-Big_Burger_Bar-Barrie_ON.html",
      "subcategory": [
        {
          "name": "Burgers",
          "localized_name": "Burgers"
        }
      ]
    },
    {
      "location_id": "963605",
      "name": "Java Espresso Bar",
      "address_obj": {
        "street1": "183 Bloor Road West",
        "city": "Barrie",
        "state": "ON",
        "postalcode": "L5I 6W5",
        "country": "Canada",
        "latitude": "44.391533",
        "longitude": "-79.672495"
      },
      "rating": "4.5",
      "num_reviews": "4592",
      "web_url": "https://www.tripadvisor.com/Restaurant_Review-g154979-d963605-Reviews-Java_Espresso_Bar-Barrie_ON.html",
      "subcategory": [
        {
          "name": "Coffee",
          "localized_name": "Coffee"
        }
      ]
    },
    {
      "location_id": "687196",
      "name": "Flying Brewing Co.",
      "address_obj": {
        "street1": "624 Oak Lane East",
        "city": "Barrie",
        "state": "ON",
        "postalcode": "L8F 8W6",
        "country": "Canada",
        "latitude": "44.378379",
        "longitude": "-79.682244"
      },
      "rating": "4.3",
      "num_reviews": "1194",
      "web_url": "https://www.tripadvisor.com/Restaurant_Review-g154979-d687196-Reviews-Flying_Brewing_Co.-Barrie_ON.html",
      "subcategory": [
        {
          "name": "Breweries",
          "localized_name": "Breweries"
        }
      ]
    },
    {
      "location_id": "628939",
      "name": "Golden Thai House",
      "address_obj": {
        "street1": "381 Dunlop Drive East",
        "city": "Barrie",
        "state": "ON",
        "postalcode": "L2C 8I5",
        "country": "Canada",
        "latitude": "44.380509",
        "longitude": "-79.665057"
      },
      "rating": "3.8",
      "num_reviews": "474",
      "web_url": "https://www.tripadvisor.com/Restaurant_Review-g154979-d628939-Reviews-Golden_Thai_House-Barrie_ON.html",
      "subcategory": [
        {
          "name": "Thai",
          "localized_name": "Thai"
        }
      ]
    },
    {
      "location_id": "731219",
      "name": "Morning Coffee Restaurant",
      "address_obj": {
        "street1": "31 Main Avenue South",
        "city": "Barrie",
        "state": "ON",
        "postalcode": "L9L 3T6",
        "country": "Canada",
        "latitude": "44.381521",
        "longitude": "-79.679706"
      },
      "rating": "4.8",
      "num_reviews": "313",
      "web_url": "https://www.tripadvisor.com/Restaurant_Review-g154979-d731219-Reviews-Morning_Coffee_Restaurant-Barrie_ON.html",
      "subcategory": [
        {
          "name": "Coffee",
          "localized_name": "Coffee"
        }
      ]
    },
    {
      "location_id": "436788",
      "name": "Casa Osteria",
      "address_obj": {
        "street1": "101 Granville Boulevard North",
        "city": "Barrie",
        "state": "ON",
        "postalcode": "L5K 3M4",
        "country": "Canada",
        "latitude": "44.384262",
        "longitude": "-79.720752"
      },
      "rating": "4.4",
      "num_reviews": "207",
      "web_url": "https://www.tripadvisor.com/Restaurant_Review-g154979-d436788-Reviews-Casa_Osteria-Barrie_ON.html",
      "subcategory": [
        {
          "name": "Italian",
          "localized_name": "Italian"
        }
      ]
    },
    {
      "location_id": "564241",
      "name": "Taj Curry House",
      "address_obj": {
        "street1": "236 Bay Lane West",
        "city": "Barrie",
        "state": "ON",
        "postalcode": "L3F 9P8",
        "country": "Canada",
        "latitude": "44.388701",
        "longitude": "-79.723312"
      },
      "rating": "4.6",
      "num_reviews": "1484",
      "web_url": "https://www.tripadvisor.com/Restaurant_Review-g154979-d564241-Reviews-Taj_Curry_House-Barrie_ON.html",
      "subcategory": [
        {
          "name": "Indian",
          "localized_name": "Indian"
        }
      ]
    },
    {
      "location_id": "918614",
      "name": "Osaka Japanese Restaurant Restaurant",
      "address_obj": {
        "street1": "398 Queen Avenue West",
        "city": "Barrie",
        "state": "ON",
        "postalcode": "L9F 7F7",
        "country": "Canada",
        "latitude": "44.381671",
        "longitude": "-79.71219"
      },
      "rating": "2.9",
      "num_reviews": "28",
      "web_url": "https://www.tripadvisor.com/Restaurant_Review-g154979-d918614-Reviews-Osaka_Japanese_Restaurant_Restaurant-Barrie_ON.html",
      "subcategory": [
        {
          "name": "Sushi",
          "localized_name": "Sushi"
        }
      ]
    },
    {
      "location_id": "769694",
      "name": "Hanoi Vietnamese Restaurant",
      "address_obj": {
        "street1": "488 Maple Road North",
        "city": "Barrie",
        "state": "ON",
        "postalcode": "L8Q 8R4",
        "country": "Canada",
        "latitude": "44.382487",
        "longitude": "-79.720515"
      },
      "rating": "4.6",
      "num_reviews": "1",
      "web_url": "https://www.tripadvisor.com/Restaurant_Review-g154979-d769694-Reviews-Hanoi_Vietnamese_Restaurant-Barrie_ON.html",
      "subcategory": [
        {
          "name": "Vietnamese",
          "localized_name": "Vietnamese"
        }
      ]
    },
    {
      "location_id": "895127",
      "name": "Java Coffee Co.",
      "address_obj": {
        "street1": "496 Bay Street",
        "city": "Barrie",
        "state": "ON",
        "postalcode": "L7N 9Q4",
        "country": "Canada",
        "latitude": "44.398316",
        "longitude": "-79.712024"
      },
      "rating": "2.3",
      "num_reviews": "455",
      "web_url": "https://www.tripadvisor.com/Restaurant_Review-g154979-d895127-Reviews-Java_Coffee_Co.-Barrie_ON.html",
      "subcategory": [
        {
          "name": "Coffee",
          "localized_name": "Coffee"
        }
      ]
    },
    {
      "location_id": "511288",
      "name": "Los Tacos",
      "address_obj": {
        "street1": "726 Pine Boulevard South",
        "city": "Toronto",
        "state": "ON",
        "postalcode": "L6R 0Z1",
        "country": "Canada",
        "latitude": "43.655869",
        "longitude": "-79.39061"
      },
      "rating": "4.0",
      "num_reviews": "1",
      "web_url": "https://www.tripadvisor.com/Restaurant_Review-g154979-d511288-Reviews-Los_Tacos-Toronto_ON.html",
      "subcategory": [
        {
          "name": "Mexican",
          "localized_name": "Mexican"
        }
      ]
    },
    {
      "location_id": "518854",
      "name": "Zen Izakaya",
      "address_obj": {
        "street1": "304 King Lane South",
        "city": "Toronto",
        "state": "ON",
        "postalcode": "L9T 5L6",
        "country": "Canada",
        "latitude": "43.649301",
        "longitude": "-79.389532"
      },
      "rating": "4.3",
      "num_reviews": "32",
      "web_url": "https://www.tripadvisor.com/Restaurant_Review-g154979-d518854-Reviews-Zen_Izakaya-Toronto_ON.html",
      "subcategory": [
        {
          "name": "Sushi",
          "localized_name": "Sushi"
        }
      ]
    },
    {
      "location_id": "595356",
      "name": "Spice Tandoori",
      "address_obj": {
        "street1": "26 Oak Road",
        "city": "Toronto",
        "state": "ON",
        "postalcode": "L7S 1A2",
        "country": "Canada",
        "latitude": "43.653714",
        "longitude": "-79.387786"
      },
      "rating": "4.9",
      "num_reviews": "562",
      "web_url": "https://www.tripadvisor.com/Restaurant_Review-g154979-d595356-Reviews-Spice_Tandoori-Toronto_ON.html",
      "subcategory": [
        {
          "name": "Indian",
          "localized_name": "Indian"
        }
      ]
    },
    {
      "location_id": "993634",
      "name": "Juicy Grill",
      "address_obj": {
        "street1": "339 Bay Road South",
        "city": "Toronto",
        "state": "ON",
        "postalcode": "L3T 7Z0",
        "country": "Canada",
        "latitude": "43.659651",
        "longitude": "-79.390422"
      },
      "rating": "3.9",
      "num_reviews": "769",
      "web_url": "https://www.tripadvisor.com/Restaurant_Review-g154979-d993634-Reviews-Juicy_Grill-Toronto_ON.html",
      "subcategory": [
        {
          "name": "Burgers",
          "localized_name": "Burgers"
        }
      ]
    },
    {
      "location_id": "527523",
      "name": "La Cantina",
      "address_obj": {
        "street1": "129 Pine Road",
        "city": "Toronto",
        "state": "ON",
        "postalcode": "L5M 7E9",
        "country": "Canada",
        "latitude": "43.649953",
        "longitude": "-79.377775"
      },
      "rating": "4.3",
      "num_reviews": "68",
      "web_url": "https://www.tripadvisor.com/Restaurant_Review-g154979-d527523-Reviews-La_Cantina-Toronto_ON.html",
      "subcategory": [
        {
          "name": "Mexican",
          "localized_name": "Mexican"
        }
      ]
    },
    {
      "location_id": "532992",
      "name": "Delhi Masala",
      "address_obj": {
        "street1": "113 Granville Avenue South",
        "city": "Toronto",
        "state": "ON",
        "postalcode": "L3L 8D3",
        "country": "Canada",
        "latitude": "43.657826",
        "longitude": "-79.38155"
      },
      "rating": "4.7",
      "num_reviews": "83",
      "web_url": "https://www.tripadvisor.com/Restaurant_Review-g154979-d532992-Reviews-Delhi_Masala-Toronto_ON.html",
      "subcategory": [
        {
          "name": "Indian",
          "localized_name": "Indian"
        }
      ]
    },
    {
      "location_id": "710580",
      "name": "La Ristorante",
      "address_obj": {
        "street1": "221 Robson Road East",
        "city": "Toronto",
        "state": "ON",
        "postalcode": "L7J 6Y9",
        "country": "Canada",
        "latitude": "43.654612",
        "longitude": "-79.38249"
      },
      "rating": "3.1",
      "num_reviews": "29",
      "web_url": "https://www.tripadvisor.com/Restaurant_Review-g154979-d710580-Reviews-La_Ristorante-Toronto_ON.html",
      "subcategory": [
        {
          "name": "Italian",
          "localized_name": "Italian"
        }
      ]
    },
    {
      "location_id": "443844",
      "name": "Tokyo Izakaya",
      "address_obj": {
        "street1": "773 College Road North",
        "city": "Toronto",
        "state": "ON",
        "postalcode": "L0H 0S1",
        "country": "Canada",
        "latitude": "43.643896",
        "longitude": "-79.391647"
      },
      "rating": "4.3",
      "num_reviews": "421",
      "web_url": "https://www.tripadvisor.com/Restaurant_Review-g154979-d443844-Reviews-Tokyo_Izakaya-Toronto_ON.html",
      "subcategory": [
        {
          "name": "Sushi",
          "localized_name": "Sushi"
        }
      ]
    },
    {
      "location_id": "209457",
      "name": "Rustic Daily Bread",
      "address_obj": {
        "street1": "628 College Street East",
        "city": "Toronto",
        "state": "ON",
        "postalcode": "L3Y 8U1",
        "country": "Canada",
        "latitude": "43.649422",
        "longitude": "-79.388164"
      },
      "rating": "4.6",
      "num_reviews": "91",
      "web_url": "https://www.tripadvisor.com/Restaurant_Review-g154979-d209457-Reviews-Rustic_Daily_Bread-Toronto_ON.html",
      "subcategory": [
        {
          "name": "Bakeries",
          "localized_name": "Bakeries"
        }
      ]
    },
    {
      "location_id": "389872",
      "name": "Spice Curry House",
      "address_obj": {
        "street1": "479 College Drive North",
        "city": "Toronto",
        "state": "ON",
        "postalcode": "L5A 3J3",
        "country": "Canada",
        "latitude": "43.654577",
        "longitude": "-79.388162"
      },
      "rating": "4.0",
      "num_reviews": "64",
      "web_url": "https://www.tripadvisor.com/Restaurant_Review-g154979-d389872-Reviews-Spice_Curry_House-Toronto_ON.html",
      "subcategory": [
        {
          "name": "Indian",
          "localized_name": "Indian"
        }
      ]
    },
    {
      "location_id": "433201",
      "name": "Samurai Sushi Bar",
      "address_obj": {
        "street1": "585 Dunlop Lane",
        "city": "Toronto",
        "state": "ON",
        "postalcode": "L4N 3I2",
        "country": "Canada",
        "latitude": "43.644243",
        "longitude": "-79.388951"
      },
      "rating": "4.6",
      "num_reviews": "249",
      "web_url": "https://www.tripadvisor.com/Restaurant_Review-g154979-d433201-Reviews-Samurai_Sushi_Bar-Toronto_ON.html",
      "subcategory": [
        {
          "name": "Sushi",
          "localized_name": "Sushi"
        }
      ]
    },
    {
      "location_id": "725252",
      "name": "Osaka Sushi",
      "address_obj": {
        "street1": "547 Dunlop Lane South",
        "city": "Toronto",
        "state": "ON",
        "postalcode": "L8Q 4F6",
        "country": "Canada",
        "latitude": "43.654561",
        "longitude": "-79.379279"
      },
      "rating": "2.5",
      "num_reviews": "28",
      "web_url": "https://www.tripadvisor.com/Restaurant_Review-g154979-d725252-Reviews-Osaka_Sushi-Toronto_ON.html",
      "subcategory": [
        {
          "name": "Sushi",
          "localized_name": "Sushi"
        }
      ]
    },
    {
      "location_id": "526032",
      "name": "Pho Banh Mi Restaurant",
      "address_obj": {
        "street1": "777 Pine Lane",
        "city": "Toronto",
        "state": "ON",
        "postalcode": "L5T 5G7",
        "country": "Canada",
        "latitude": "43.64342",
        "longitude": "-79.383305"
      },
      "rating": "4.8",
      "num_reviews": "0",
      "web_url": "https://www.tripadvisor.com/Restaurant_Review-g154979-d526032-Reviews-Pho_Banh_Mi_Restaurant-Toronto_ON.html",
      "subcategory": [
        {
          "name": "Vietnamese",
          "localized_name": "Vietnamese"
        }
      ]
    },
    {
      "location_id": "293324",
      "name": "Spice Thai House Restaurant",
      "address_obj": {
        "street1": "715 King Avenue South",
        "city": "Toronto",
        "state": "ON",
        "postalcode": "L6L 3S8",
        "country": "Canada",
        "latitude": "43.689417",
        "longitude": "-79.39982"
      },
      "rating": "2.0",
      "num_reviews": "224",
      "web_url": "https://www.tripadvisor.com/Restaurant_Review-g154979-d293324-Reviews-Spice_Thai_House_Restaurant-Toronto_ON.html",
      "subcategory": [
        {
          "name": "Thai",
          "localized_name": "Thai"
        }
      ]
    },
    {
      "location_id": "884677",
      "name": "Barrel Brewing Co.",
      "address_obj": {
        "street1": "970 Oak Road East",
        "city": "Toronto",
        "state": "ON",
        "postalcode": "L4B 0U7",
        "country": "Canada",
        "latitude": "43.695086",
        "longitude": "-79.39009"
      },
      "rating": "4.3",
      "num_reviews": "1473",
      "web_url": "https://www.tripadvisor.com/Restaurant_Review-g154979-d884677-Reviews-Barrel_Brewing_Co.-Toronto_ON.html",
      "subcategory": [
        {
          "name": "Breweries",
          "localized_name": "Breweries"
        }
      ]
    },
    {
      "location_id": "270586",
      "name": "Golden Thai Cuisine",
      "address_obj": {
        "street1": "620 Yonge Lane North",
        "city": "Toronto",
        "state": "ON",
        "postalcode": "L0Q 8Z9",
        "country": "Canada",
        "latitude": "43.682777",
        "longitude": "-79.397225"
      },
      "rating": "3.6",
      "num_reviews": "76",
      "web_url": "https://www.tripadvisor.com/Restaurant_Review-g154979-d270586-Reviews-Golden_Thai_Cuisine-Toronto_ON.html",
      "subcategory": [
        {
          "name": "Thai",
          "localized_name": "Thai"
        }
      ]
    },
    {
      "location_id": "503495",
      "name": "Java Coffee",
      "address_obj": {
        "street1": "246 Queen Street West",
        "city": "Toronto",
        "state": "ON",
        "postalcode": "L1X 6D8",
        "country": "Canada",
        "latitude": "43.683944",
        "longitude": "-79.398"
      },
      "rating": "4.3",
      "num_reviews": "3261",
      "web_url": "https://www.tripadvisor.com/Restaurant_Review-g154979-d503495-Reviews-Java_Coffee-Toronto_ON.html",
      "subcategory": [
        {
          "name": "Coffee",
          "localized_name": "Coffee"
        }
      ]
    },
    {
      "location_id": "818817",
      "name": "Big Burger Bar",
      "address_obj": {
        "street1": "102 Queen Avenue South",
        "city": "Toronto",
        "state": "ON",
        "postalcode": "L4U 0J3",
        "country": "Canada",
        "latitude": "43.691755",
        "longitude": "-79.400311"
      },
      "rating": "4.7",
      "num_reviews": "0",
      "web_url": "https://www.tripadvisor.com/Restaurant_Review-g154979-d818817-Reviews-Big_Burger_Bar-Toronto_ON.html",
      "subcategory": [
        {
          "name": "Burgers",
          "localized_name": "Burgers"
        }
      ]
    },
    {
      "location_id": "430323",
      "name": "Spice Tandoori",
      "address_obj": {
        "street1": "656 Maple Boulevard",
        "city": "Toronto",
        "state": "ON",
        "postalcode": "L0V 1H1",
        "country": "Canada",
        "latitude": "43.696181",
        "longitude": "-79.40595"
      },
      "rating": "4.6",
      "num_reviews": "19",
      "web_url": "https://www.tripadvisor.com/Restaurant_Review-g154979-d430323-Reviews-Spice_Tandoori-Toronto_ON.html",
      "subcategory": [
        {
          "name": "Indian",
          "localized_name": "Indian"
        }
      ]
    },
    {
      "location_id": "157984",
      "name": "Siam Thai Restaurant",
      "address_obj": {
        "street1": "510 Maple Street North",
        "city": "Toronto",
        "state": "ON",
        "postalcode": "L1I 3B7",
        "country": "Canada",
        "latitude": "43.696424",
        "longitude": "-79.405904"
      },
      "rating": "3.5",
      "num_reviews": "67",
      "web_url": "https://www.tripadvisor.com/Restaurant_Review-g154979-d157984-Reviews-Siam_Thai_Restaurant-Toronto_ON.html",
      "subcategory": [
        {
          "name": "Thai",
          "localized_name": "Thai"
        }
      ]
    },
    {
      "location_id": "322359",
      "name": "Spice Tandoori",
      "address_obj": {
        "street1": "186 Oak Avenue",
        "city": "Toronto",
        "state": "ON",
        "postalcode": "L4W 1R8",
        "country": "Canada",
        "latitude": "43.693748",
        "longitude": "-79.39242"
      },
      "rating": "4.6",
      "num_reviews": "476",
      "web_url": "https://www.tripadvisor.com/Restaurant_Review-g154979-d322359-Reviews-Spice_Tandoori-Toronto_ON.html",
      "subcategory": [
        {
          "name": "Indian",
          "localized_name": "Indian"
        }
      ]
    },
    {
      "location_id": "558786",
      "name": "Bean Cafe",
      "address_obj": {
        "street1": "928 Bloor Boulevard East",
        "city": "Toronto",
        "state": "ON",
        "postalcode": "L9C 5H8",
        "country": "Canada",
        "latitude": "43.689712",
        "longitude": "-79.391144"
      },
      "rating": "4.9",
      "num_reviews": "133",
      "web_url": "https://www.tripadvisor.com/Restaurant_Review-g154979-d558786-Reviews-Bean_Cafe-Toronto_ON.html",
      "subcategory": [
        {
          "name": "Coffee",
          "localized_name": "Coffee"
        }
      ]
    },
    {
      "location_id": "798999",
      "name": "Bella Trattoria Restaurant",
      "address_obj": {
        "street1": "933 Granville Street South",
        "city": "Toronto",
        "state": "ON",
        "postalcode": "L9E 6L9",
        "country": "Canada",
        "latitude": "43.685161",
        "longitude": "-79.406691"
      },
      "rating": "5.0",
      "num_reviews": "1703",
      "web_url": "https://www.tripadvisor.com/Restaurant_Review-g154979-d798999-Reviews-Bella_Trattoria_Restaurant-Toronto_ON.html",
      "subcategory": [
        {
          "name": "Italian",
          "localized_name": "Italian"
        }
      ]
    },
    {
      "location_id": "291530",
      "name": "Rustic Bread Co.",
      "address_obj": {
        "street1": "191 College Avenue West",
        "city": "Toronto",
        "state": "ON",
        "postalcode": "L0L 4L9",
        "country": "Canada",
        "latitude": "43.695105",
        "longitude": "-79.396614"
      },
      "rating": "1.9",
      "num_reviews": "449",
      "web_url": "https://www.tripadvisor.com/Restaurant_Review-g154979-d291530-Reviews-Rustic_Bread_Co.-Toronto_ON.html",
      "subcategory": [
        {
          "name": "Bakeries",
          "localized_name": "Bakeries"
        }
      ]
    },
    {
      "location_id": "849330",
      "name": "Burger Burger Bar Restaurant",
      "address_obj": {
        "street1": "678 Granville Avenue South",
        "city": "Toronto",
        "state": "ON",
        "postalcode": "L2M 3Z4",
        "country": "Canada",
        "latitude": "43.683399",
        "longitude": "-79.392824"
      },
      "rating": "4.4",
      "num_reviews": "214",
      "web_url": "https://www.tripadvisor.com/Restaurant_Review-g154979-d849330-Reviews-Burger_Burger_Bar_Restaurant-Toronto_ON.html",
      "subcategory": [
        {
          "name": "Burgers",
          "localized_name": "Burgers"
        }
      ]
    },
    {
      "location_id": "575294",
      "name": "Juicy Burger Bar Restaurant",
      "address_obj": {
        "street1": "993 Dunlop Lane North",
        "city": "Toronto",
        "state": "ON",
        "postalcode": "L5L 7I4",
        "country": "Canada",
        "latitude": "43.68833",
        "longitude": "-79.391727"
      },
      "rating": "4.6",
      "num_reviews": "447",
      "web_url": "https://www.tripadvisor.com/Restaurant_Review-g154979-d575294-Reviews-Juicy_Burger_Bar_Restaurant-Toronto_ON.html",
      "subcategory": [
        {
          "name": "Burgers",
          "localized_name": "Burgers"
        }
      ]
    },
    {
      "location_id": "350280",
      "name": "Iron Taproom",
      "address_obj": {
        "street1": "799 Yonge Drive East",
        "city": "Toronto",
        "state": "ON",
        "postalcode": "L0L 4G9",
        "country": "Canada",
        "latitude": "43.665549",
        "longitude": "-79.308249"
      },
      "rating": "4.7",
      "num_reviews": "49",
      "web_url": "https://www.tripadvisor.com/Restaurant_Review-g154979-d350280-Reviews-Iron_Taproom-Toronto_ON.html",
      "subcategory": [
        {
          "name": "Breweries",
          "localized_name": "Breweries"
        }
      ]
    },
    {
      "location_id": "610589",
      "name": "Village Daily Bread Restaurant",
      "address_obj": {
        "street1": "469 Robson Street North",
        "city": "Toronto",
        "state": "ON",
        "postalcode": "L6T 0N1",
        "country": "Canada",
        "latitude": "43.66851",
        "longitude": "-79.303966"
      },
      "rating": "4.7",
      "num_reviews": "68",
      "web_url": "https://www.tripadvisor.com/Restaurant_Review-g154979-d610589-Reviews-Village_Daily_Bread_Restaurant-Toronto_ON.html",
      "subcategory": [
        {
          "name": "Bakeries",
          "localized_name": "Bakeries"
        }
      ]
    },
    {
      "location_id": "623826",
      "name": "Royal Masala Restaurant",
      "address_obj": {
        "street1": "102 Pine Lane East",
        "city": "Toronto",
        "state": "ON",
        "postalcode": "L9V 5H5",
        "country": "Canada",
        "latitude": "43.671832",
        "longitude": "-79.308461"
      },
      "rating": "4.8",
      "num_reviews": "2067",
      "web_url": "https://www.tripadvisor.com/Restaurant_Review-g154979-d623826-Reviews-Royal_Masala_Restaurant-Toronto_ON.html",
      "subcategory": [
        {
          "name": "Indian",
          "localized_name": "Indian"
        }
      ]
    },
    {
      "location_id": "792288",
      "name": "Big Burger Bar",
      "address_obj": {
        "street1": "484 Dunlop Avenue North",
        "city": "Toronto",
        "state": "ON",
        "postalcode": "L0E 0L4",
        "country": "Canada",
        "latitude": "43.667125",
        "longitude": "-79.29388"
      },
      "rating": "5.0",
      "num_reviews": "477",
      "web_url": "https://www.tripadvisor.com/Restaurant_Review-g154979-d792288-Reviews-Big_Burger_Bar-Toronto_ON.html",
      "subcategory": [
        {
          "name": "Burgers",
          "localized_name": "Burgers"
        }
      ]
    },
    {
      "location_id": "859491",
      "name": "Bella Pizzeria",
      "address_obj": {
        "street1": "978 Main Drive East",
        "city": "Toronto",
        "state": "ON",
        "postalcode": "L4N 5B8",
        "country": "Canada",
        "latitude": "43.66974",
        "longitude": "-79.303936"
      },
      "rating": "5.0",
      "num_reviews": "435",
      "web_url": "https://www.tripadvisor.com/Restaurant_Review-g154979-d859491-Reviews-Bella_Pizzeria-Toronto_ON.html",
      "subcategory": [
        {
          "name": "Italian",
          "localized_name": "Italian"
        }
      ]
    },
    {
      "location_id": "603670",
      "name": "Se単or Burrito Bar",
      "address_obj": {
        "street1": "383 Robson Drive East",
        "city": "Toronto",
        "state": "ON",
        "postalcode": "L4V 3Q1",
        "country": "Canada",
        "latitude": "43.672336",
        "longitude": "-79.290833"
      },
      "rating": "3.4",
      "num_reviews": "35",
      "web_url": "https://www.tripadvisor.com/Restaurant_Review-g154979-d603670-Reviews-Se単or_Burrito_Bar-Toronto_ON.html",
      "subcategory": [
        {
          "name": "Mexican",
          "localized_name": "Mexican"
        }
      ]
    },
    {
      "location_id": "225586",
      "name": "Morning Coffee Restaurant",
      "address_obj": {
        "street1": "667 Oak Lane North",
        "city": "Toronto",
        "state": "ON",
        "postalcode": "L2H 8J0",
        "country": "Canada",
        "latitude": "43.667096",
        "longitude": "-79.298148"
      },
      "rating": "3.4",
      "num_reviews": "198",
      "web_url": "https://www.tripadvisor.com/Restaurant_Review-g154979-d225586-Reviews-Morning_Coffee_Restaurant-Toronto_ON.html",
      "subcategory": [
        {
          "name": "Coffee",
          "localized_name": "Coffee"
        }
      ]
    },
    {
      "location_id": "431551",
      "name": "Daily Espresso Bar",
      "address_obj": {
        "street1": "404 Main Boulevard South",
        "city": "Toronto",
        "state": "ON",
        "postalcode": "L8J 7E5",
        "country": "Canada",
        "latitude": "43.660913",
        "longitude": "-79.300482"
      },
      "rating": "3.1",
      "num_reviews": "1354",
      "web_url": "https://www.tripadvisor.com/Restaurant_Review-g154979-d431551-Reviews-Daily_Espresso_Bar-Toronto_ON.html",
      "subcategory": [
        {
          "name": "Coffee",
          "localized_name": "Coffee"
        }
      ]
    },
    {
      "location_id": "716831",
      "name": "Spice Indian Restaurant",
      "address_obj": {
        "street1": "148 Oak Boulevard South",
        "city": "Toronto",
        "state": "ON",
        "postalcode": "L8L 0X2",
        "country": "Canada",
        "latitude": "43.648397",
        "longitude": "-79.441567"
      },
      "rating": "4.9",
      "num_reviews": "26",
      "web_url": "https://www.tripadvisor.com/Restaurant_Review-g154979-d716831-Reviews-Spice_Indian_Restaurant-Toronto_ON.html",
      "subcategory": [
        {
          "name": "Indian",
          "localized_name": "Indian"
        }
      ]
    },
    {
      "location_id": "361521",
      "name": "Spice Tandoori Restaurant",
      "address_obj": {
        "street1": "729 Dunlop Street South",
        "city": "Toronto",
        "state": "ON",
        "postalcode": "L6X 8K6",
        "country": "Canada",
        "latitude": "43.649668",
        "longitude": "-79.44575"
      },
      "rating": "4.9",
      "num_reviews": "91",
      "web_url": "https://www.tripadvisor.com/Restaurant_Review-g154979-d361521-Reviews-Spice_Tandoori_Restaurant-Toronto_ON.html",
      "subcategory": [
        {
          "name": "Indian",
          "localized_name": "Indian"
        }
      ]
    },
    {
      "location_id": "165210",
      "name": "Iron Craft Brewery",
      "address_obj": {
        "street1": "615 Maple Road West",
        "city": "Toronto",
        "state": "ON",
        "postalcode": "L5G 4A8",
        "country": "Canada",
        "latitude": "43.653547",
        "longitude": "-79.445454"
      },
      "rating": "4.3",
      "num_reviews": "31",
      "web_url": "https://www.tripadvisor.com/Restaurant_Review-g154979-d165210-Reviews-Iron_Craft_Brewery-Toronto_ON.html",
      "subcategory": [
        {
          "name": "Breweries",
          "localized_name": "Breweries"
        }
      ]
    },
    {
      "location_id": "178072",
      "name": "Delhi Tandoori Restaurant",
      "address_obj": {
        "street1": "212 Yonge Avenue South",
        "city": "Toronto",
        "state": "ON",
        "postalcode": "L4H 1V8",
        "country": "Canada",
        "latitude": "43.658802",
        "longitude": "-79.440833"
      },
      "rating": "5.0",
      "num_reviews": "107",
      "web_url": "https://www.tripadvisor.com/Restaurant_Review-g154979-d178072-Reviews-Delhi_Tandoori_Restaurant-Toronto_ON.html",
      "subcategory": [
        {
          "name": "Indian",
          "localized_name": "Indian"
        }
      ]
    },
    {
      "location_id": "327051",
      "name": "Bean Cafe",
      "address_obj": {
        "street1": "580 Robson Street East",
        "city": "Toronto",
        "state": "ON",
        "postalcode": "L4M 5F9",
        "country": "Canada",
        "latitude": "43.647353",
        "longitude": "-79.450242"
      },
      "rating": "4.9",
      "num_reviews": "358",
      "web_url": "https://www.tripadvisor.com/Restaurant_Review-g154979-d327051-Reviews-Bean_Cafe-Toronto_ON.html",
      "subcategory": [
        {
          "name": "Coffee",
          "localized_name": "Coffee"
        }
      ]
    },
    {
      "location_id": "929404",
      "name": "Luigi's Ristorante",
      "address_obj": {
        "street1": "975 Bloor Avenue East",
        "city": "Toronto",
        "state": "ON",
        "postalcode": "L4B 0O5",
        "country": "Canada",
        "latitude": "43.647219",
        "longitude": "-79.459268"
      },
      "rating": "3.0",
      "num_reviews": "410",
      "web_url": "https://www.tripadvisor.com/Restaurant_Review-g154979-d929404-Reviews-Luigi's_Ristorante-Toronto_ON.html",
      "subcategory": [
        {
          "name": "Italian",
          "localized_name": "Italian"
        }
      ]
    },
    {
      "location_id": "549327",
      "name": "Mumbai Curry House",
      "address_obj": {
        "street1": "712 Main Drive",
        "city": "Toronto",
        "state": "ON",
        "postalcode": "L4M 2W6",
        "country": "Canada",
        "latitude": "43.643832",
        "longitude": "-79.457501"
      },
      "rating": "3.3",
      "num_reviews": "4311",
      "web_url": "https://www.tripadvisor.com/Restaurant_Review-g154979-d549327-Reviews-Mumbai_Curry_House-Toronto_ON.html",
      "subcategory": [
        {
          "name": "Indian",
          "localized_name": "Indian"
        }
      ]
    },
    {
      "location_id": "312460",
      "name": "Bean Cafe Restaurant",
      "address_obj": {
        "street1": "235 Dunlop Street West",
        "city": "Toronto",
        "state": "ON",
        "postalcode": "L4E 1V0",
        "country": "Canada",
        "latitude": "43.655166",
        "longitude": "-79.443948"
      },
      "rating": "4.5",
      "num_reviews": "113",
      "web_url": "https://www.tripadvisor.com/Restaurant_Review-g154979-d312460-Reviews-Bean_Cafe_Restaurant-Toronto_ON.html",
      "subcategory": [
        {
          "name": "Coffee",
          "localized_name": "Coffee"
        }
      ]
    },
    {
      "location_id": "173549",
      "name": "Hanoi Pho House Restaurant",
      "address_obj": {
        "street1": "580 Granville Avenue",
        "city": "Toronto",
        "state": "ON",
        "postalcode": "L1R 9Z1",
        "country": "Canada",
        "latitude": "43.757308",
        "longitude": "-79.405496"
      },
      "rating": "2.9",
      "num_reviews": "63",
      "web_url": "https://www.tripadvisor.com/Restaurant_Review-g154979-d173549-Reviews-Hanoi_Pho_House_Restaurant-Toronto_ON.html",
      "subcategory": [
        {
          "name": "Vietnamese",
          "localized_name": "Vietnamese"
        }
      ]
    },
    {
      "location_id": "151964",
      "name": "Barking Brewing Co.",
      "address_obj": {
        "street1": "735 Dunlop Street East",
        "city": "Toronto",
        "state": "ON",
        "postalcode": "L3M 5Q1",
        "country": "Canada",
        "latitude": "43.75681",
        "longitude": "-79.402669"
      },
      "rating": "3.8",
      "num_reviews": "86",
      "web_url": "https://www.tripadvisor.com/Restaurant_Review-g154979-d151964-Reviews-Barking_Brewing_Co.-Toronto_ON.html",
      "subcategory": [
        {
          "name": "Breweries",
          "localized_name": "Breweries"
        }
      ]
    },
    {
      "location_id": "970435",
      "name": "Bella Ristorante Restaurant",
      "address_obj": {
        "street1": "827 Main Road North",
        "city": "Toronto",
        "state": "ON",
        "postalcode": "L0O 8C5",
        "country": "Canada",
        "latitude": "43.751137",
        "longitude": "-79.40746"
      },
      "rating": "4.1",
      "num_reviews": "36",
      "web_url": "https://www.tripadvisor.com/Restaurant_Review-g154979-d970435-Reviews-Bella_Ristorante_Restaurant-Toronto_ON.html",
      "subcategory": [
        {
          "name": "Italian",
          "localized_name": "Italian"
        }
      ]
    },
    {
      "location_id": "161203",
      "name": "Mumbai Indian Restaurant",
      "address_obj": {
        "street1": "732 King Road North",
        "city": "Toronto",
        "state": "ON",
        "postalcode": "L6N 2L8",
        "country": "Canada",
        "latitude": "43.752715",
        "longitude": "-79.412637"
      },
      "rating": "4.4",
      "num_reviews": "15",
      "web_url": "https://www.tripadvisor.com/Restaurant_Review-g154979-d161203-Reviews-Mumbai_Indian_Restaurant-Toronto_ON.html",
      "subcategory": [
        {
          "name": "Indian",
          "localized_name": "Indian"
        }
      ]
    },
    {
      "location_id": "385464",
      "name": "Hop Taproom Restaurant",
      "address_obj": {
        "street1": "893 College Avenue",
        "city": "Toronto",
        "state": "ON",
        "postalcode": "L6C 5X6",
        "country": "Canada",
        "latitude": "43.763573",
        "longitude": "-79.403323"
      },
      "rating": "2.1",
      "num_reviews": "81",
      "web_url": "https://www.tripadvisor.com/Restaurant_Review-g154979-d385464-Reviews-Hop_Taproom_Restaurant-Toronto_ON.html",
      "subcategory": [
        {
          "name": "Breweries",
          "localized_name": "Breweries"
        }
      ]
    },
    {
      "location_id": "316243",
      "name": "Golden Bakery",
      "address_obj": {
        "street1": "573 Maple Road",
        "city": "Toronto",
        "state": "ON",
        "postalcode": "L5W 9E3",
        "country": "Canada",
        "latitude": "43.768855",
        "longitude": "-79.404265"
      },
      "rating": "4.8",
      "num_reviews": "32",
      "web_url": "https://www.tripadvisor.com/Restaurant_Review-g154979-d316243-Reviews-Golden_Bakery-Toronto_ON.html",
      "subcategory": [
        {
          "name": "Bakeries",
          "localized_name": "Bakeries"
        }
      ]
    },
    {
      "location_id": "890984",
      "name": "Warm Patisserie",
      "address_obj": {
        "street1": "114 Maple Avenue North",
        "city": "Toronto",
        "state": "ON",
        "postalcode": "L4O 7U2",
        "country": "Canada",
        "latitude": "43.755802",
        "longitude": "-79.416603"
      },
      "rating": "4.4",
      "num_reviews": "80",
      "web_url": "https://www.tripadvisor.com/Restaurant_Review-g154979-d890984-Reviews-Warm_Patisserie-Toronto_ON.html",
      "subcategory": [
        {
          "name": "Bakeries",
          "localized_name": "Bakeries"
        }
      ]
    },
    {
      "location_id": "202184",
      "name": "Burger Burger Bar Restaurant",
      "address_obj": {
        "street1": "734 Dunlop Road",
        "city": "Toronto",
        "state": "ON",
        "postalcode": "L7C 6C1",
        "country": "Canada",
        "latitude": "43.761242",
        "longitude": "-79.401003"
      },
      "rating": "4.8",
      "num_reviews": "32",
      "web_url": "https://www.tripadvisor.com/Restaurant_Review-g154979-d202184-Reviews-Burger_Burger_Bar_Restaurant-Toronto_ON.html",
      "subcategory": [
        {
          "name": "Burgers",
          "localized_name": "Burgers"
        }
      ]
    },
    {
      "location_id": "502488",
      "name": "Bangkok Thai Cuisine",
      "address_obj": {
        "street1": "677 College Road North",
        "city": "Vancouver",
        "state": "BC",
        "postalcode": "V2A 5I0",
        "country": "Canada",
        "latitude": "49.290781",
        "longitude": "-123.120214"
      },
      "rating": "4.4",
      "num_reviews": "420",
      "web_url": "https://www.tripadvisor.com/Restaurant_Review-g154979-d502488-Reviews-Bangkok_Thai_Cuisine-Vancouver_BC.html",
      "subcategory": [
        {
          "name": "Thai",
          "localized_name": "Thai"
        }
      ]
    },
    {
      "location_id": "302533",
      "name": "Mario's Cucina",
      "address_obj": {
        "street1": "112 College Street North",
        "city": "Vancouver",
        "state": "BC",
        "postalcode": "V9Y 8W1",
        "country": "Canada",
        "latitude": "49.279256",
        "longitude": "-123.124539"
      },
      "rating": "4.0",
      "num_reviews": "909",
      "web_url": "https://www.tripadvisor.com/Restaurant_Review-g154979-d302533-Reviews-Mario's_Cucina-Vancouver_BC.html",
      "subcategory": [
        {
          "name": "Italian",
          "localized_name": "Italian"
        }
      ]
    },
    {
      "location_id": "858550",
      "name": "Prime Grill Restaurant",
      "address_obj": {
        "street1": "728 Yonge Boulevard North",
        "city": "Vancouver",
        "state": "BC",
        "postalcode": "V4T 4K4",
        "country": "Canada",
        "latitude": "49.277372",
        "longitude": "-123.124051"
      },
      "rating": "3.8",
      "num_reviews": "362",
      "web_url": "https://www.tripadvisor.com/Restaurant_Review-g154979-d858550-Reviews-Prime_Grill_Restaurant-Vancouver_BC.html",
      "subcategory": [
        {
          "name": "Burgers",
          "localized_name": "Burgers"
        }
      ]
    },
    {
      "location_id": "295637",
      "name": "Burger Burgers",
      "address_obj": {
        "street1": "908 Maple Boulevard South",
        "city": "Vancouver",
        "state": "BC",
        "postalcode": "V8F 2M0",
        "country": "Canada",
        "latitude": "49.280064",
        "longitude": "-123.123153"
      },
      "rating": "2.9",
      "num_reviews": "1402",
      "web_url": "https://www.tripadvisor.com/Restaurant_Review-g154979-d295637-Reviews-Burger_Burgers-Vancouver_BC.html",
      "subcategory": [
        {
          "name": "Burgers",
          "localized_name": "Burgers"
        }
      ]
    },
    {
      "location_id": "209486",
      "name": "Corner Bread Co.",
      "address_obj": {
        "street1": "679 Granville Road West",
        "city": "Vancouver",
        "state": "BC",
        "postalcode": "V7W 0I6",
        "country": "Canada",
        "latitude": "49.278937",
        "longitude": "-123.117867"
      },
      "rating": "3.1",
      "num_reviews": "27",
      "web_url": "https://www.tripadvisor.com/Restaurant_Review-g154979-d209486-Reviews-Corner_Bread_Co.-Vancouver_BC.html",
      "subcategory": [
        {
          "name": "Bakeries",
          "localized_name": "Bakeries"
        }
      ]
    },
    {
      "location_id": "308590",
      "name": "Golden The Oven",
      "address_obj": {
        "street1": "47 Bloor Boulevard",
        "city": "Vancouver",
        "state": "BC",
        "postalcode": "V0M 2M4",
        "country": "Canada",
        "latitude": "49.28253",
        "longitude": "-123.120912"
      },
      "rating": "4.5",
      "num_reviews": "26",
      "web_url": "https://www.tripadvisor.com/Restaurant_Review-g154979-d308590-Reviews-Golden_The_Oven-Vancouver_BC.html",
      "subcategory": [
        {
          "name": "Bakeries",
          "localized_name": "Bakeries"
        }
      ]
    },
    {
      "location_id": "822097",
      "name": "Bangkok Thai Restaurant Restaurant",
      "address_obj": {
        "street1": "301 Bloor Avenue East",
        "city": "Vancouver",
        "state": "BC",
        "postalcode": "V1D 5W1",
        "country": "Canada",
        "latitude": "49.287987",
        "longitude": "-123.123878"
      },
      "rating": "3.2",
      "num_reviews": "216",
      "web_url": "https://www.tripadvisor.com/Restaurant_Review-g154979-d822097-Reviews-Bangkok_Thai_Restaurant_Restaurant-Vancouver_BC.html",
      "subcategory": [
        {
          "name": "Thai",
          "localized_name": "Thai"
        }
      ]
    },
    {
      "location_id": "409766",
      "name": "Casa Burrito Bar",
      "address_obj": {
        "street1": "129 Bloor Boulevard East",
        "city": "Vancouver",
        "state": "BC",
        "postalcode": "V6X 6I8",
        "country": "Canada",
        "latitude": "49.28089",
        "longitude": "-123.120714"
      },
      "rating": "3.2",
      "num_reviews": "32",
      "web_url": "https://www.tripadvisor.com/Restaurant_Review-g154979-d409766-Reviews-Casa_Burrito_Bar-Vancouver_BC.html",
      "subcategory": [
        {
          "name": "Mexican",
          "localized_name": "Mexican"
        }
      ]
    },
    {
      "location_id": "243246",
      "name": "Prime Burger Joint",
      "address_obj": {
        "street1": "880 Bay Lane North",
        "city": "Vancouver",
        "state": "BC",
        "postalcode": "V6Y 3P0",
        "country": "Canada",
        "latitude": "49.287739",
        "longitude": "-123.111868"
      },
      "rating": "2.0",
      "num_reviews": "10",
      "web_url": "https://www.tripadvisor.com/Restaurant_Review-g154979-d243246-Reviews-Prime_Burger_Joint-Vancouver_BC.html",
      "subcategory": [
        {
          "name": "Burgers",
          "localized_name": "Burgers"
        }
      ]
    },
    {
      "location_id": "299563",
      "name": "Casa Osteria",
      "address_obj": {
        "street1": "724 Yonge Road South",
        "city": "Vancouver",
        "state": "BC",
        "postalcode": "V4P 3I0",
        "country": "Canada",
        "latitude": "49.284797",
        "longitude": "-123.111863"
      },
      "rating": "4.1",
      "num_reviews": "869",
      "web_url": "https://www.tripadvisor.com/Restaurant_Review-g154979-d299563-Reviews-Casa_Osteria-Vancouver_BC.html",
      "subcategory": [
        {
          "name": "Italian",
          "localized_name": "Italian"
        }
      ]
    },
    {
      "location_id": "617498",
      "name": "Golden Banh Mi",
      "address_obj": {
        "street1": "907 Main Street East",
        "city": "Vancouver",
        "state": "BC",
        "postalcode": "V4H 8O5",
        "country": "Canada",
        "latitude": "49.291454",
        "longitude": "-123.099311"
      },
      "rating": "4.8",
      "num_reviews": "95",
      "web_url": "https://www.tripadvisor.com/Restaurant_Review-g154979-d617498-Reviews-Golden_Banh_Mi-Vancouver_BC.html",
      "subcategory": [
        {
          "name": "Vietnamese",
          "localized_name": "Vietnamese"
        }
      ]
    },
    {
      "location_id": "430628",
      "name": "Sweet Bread Co. Restaurant",
      "address_obj": {
        "street1": "470 Pine Drive West",
        "city": "Vancouver",
        "state": "BC",
        "postalcode": "V5L 0L1",
        "country": "Canada",
        "latitude": "49.274904",
        "longitude": "-123.11675"
      },
      "rating": "4.4",
      "num_reviews": "18",
      "web_url": "https://www.tripadvisor.com/Restaurant_Review-g154979-d430628-Reviews-Sweet_Bread_Co._Restaurant-Vancouver_BC.html",
      "subcategory": [
        {
          "name": "Bakeries",
          "localized_name": "Bakeries"
        }
      ]
    },
    {
      "location_id": "941253",
      "name": "Mario's Casa",
      "address_obj": {
        "street1": "961 Dunlop Drive",
        "city": "Vancouver",
        "state": "BC",
        "postalcode": "V3L 7S3",
        "country": "Canada",
        "latitude": "49.281966",
        "longitude": "-123.103598"
      },
      "rating": "3.4",
      "num_reviews": "736",
      "web_url": "https://www.tripadvisor.com/Restaurant_Review-g154979-d941253-Reviews-Mario's_Casa-Vancouver_BC.html",
      "subcategory": [
        {
          "name": "Italian",
          "localized_name": "Italian"
        }
      ]
    },
    {
      "location_id": "466763",
      "name": "Saigon Vietnamese Restaurant",
      "address_obj": {
        "street1": "369 College Street West",
        "city": "Vancouver",
        "state": "BC",
        "postalcode": "V5G 5D9",
        "country": "Canada",
        "latitude": "49.278674",
        "longitude": "-123.098094"
      },
      "rating": "2.8",
      "num_reviews": "44",
      "web_url": "https://www.tripadvisor.com/Restaurant_Review-g154979-d466763-Reviews-Saigon_Vietnamese_Restaurant-Vancouver_BC.html",
      "subcategory": [
        {
          "name": "Vietnamese",
          "localized_name": "Vietnamese"
        }
      ]
    },
    {
      "location_id": "644341",
      "name": "Brew Roasters Restaurant",
      "address_obj": {
        "street1": "717 Main Avenue North",
        "city": "Vancouver",
        "state": "BC",
        "postalcode": "V1Y 4B7",
        "country": "Canada",
        "latitude": "49.287202",
        "longitude": "-123.099308"
      },
      "rating": "4.2",
      "num_reviews": "1060",
      "web_url": "https://www.tripadvisor.com/Restaurant_Review-g154979-d644341-Reviews-Brew_Roasters_Restaurant-Vancouver_BC.html",
      "subcategory": [
        {
          "name": "Coffee",
          "localized_name": "Coffee"
        }
      ]
    },
    {
      "location_id": "285665",
      "name": "Saigon Banh Mi Restaurant",
      "address_obj": {
        "street1": "397 Main Boulevard North",
        "city": "Vancouver",
        "state": "BC",
        "postalcode": "V0M 6B0",
        "country": "Canada",
        "latitude": "49.281206",
        "longitude": "-123.113917"
      },
      "rating": "4.0",
      "num_reviews": "37",
      "web_url": "https://www.tripadvisor.com/Restaurant_Review-g154979-d285665-Reviews-Saigon_Banh_Mi_Restaurant-Vancouver_BC.html",
      "subcategory": [
        {
          "name": "Vietnamese",
          "localized_name": "Vietnamese"
        }
      ]
    },
    {
      "location_id": "753078",
      "name": "Royal Thai Cuisine",
      "address_obj": {
        "street1": "587 Bay Drive East",
        "city": "Vancouver",
        "state": "BC",
        "postalcode": "V4Q 9B1",
        "country": "Canada",
        "latitude": "49.290658",
        "longitude": "-123.110548"
      },
      "rating": "5.0",
      "num_reviews": "257",
      "web_url": "https://www.tripadvisor.com/Restaurant_Review-g154979-d753078-Reviews-Royal_Thai_Cuisine-Vancouver_BC.html",
      "subcategory": [
        {
          "name": "Thai",
          "localized_name": "Thai"
        }
      ]
    },
    {
      "location_id": "314780",
      "name": "El Taqueria Restaurant",
      "address_obj": {
        "street1": "293 Queen Boulevard South",
        "city": "Vancouver",
        "state": "BC",
        "postalcode": "V1W 6W9",
        "country": "Canada",
        "latitude": "49.274942",
        "longitude": "-123.112188"
      },
      "rating": "2.4",
      "num_reviews": "55",
      "web_url": "https://www.tripadvisor.com/Restaurant_Review-g154979-d314780-Reviews-El_Taqueria_Restaurant-Vancouver_BC.html",
      "subcategory": [
        {
          "name": "Mexican",
          "localized_name": "Mexican"
        }
      ]
    },
    {
      "location_id": "272886",
      "name": "Steaming Roasters",
      "address_obj": {
        "street1": "472 Queen Street",
        "city": "Vancouver",
        "state": "BC",
        "postalcode": "V0E 5L2",
        "country": "Canada",
        "latitude": "49.292013",
        "longitude": "-123.10797"
      },
      "rating": "4.7",
      "num_reviews": "10",
      "web_url": "https://www.tripadvisor.com/Restaurant_Review-g154979-d272886-Reviews-Steaming_Roasters-Vancouver_BC.html",
      "subcategory": [
        {
          "name": "Coffee",
          "localized_name": "Coffee"
        }
      ]
    },
    {
      "location_id": "118947",
      "name": "Tokyo Sushi",
      "address_obj": {
        "street1": "571 Bloor Lane West",
        "city": "Vancouver",
        "state": "BC",
        "postalcode": "V1A 2Q9",
        "country": "Canada",
        "latitude": "49.275284",
        "longitude": "-123.109229"
      },
      "rating": "4.9",
      "num_reviews": "85",
      "web_url": "https://www.tripadvisor.com/Restaurant_Review-g154979-d118947-Reviews-Tokyo_Sushi-Vancouver_BC.html",
      "subcategory": [
        {
          "name": "Sushi",
          "localized_name": "Sushi"
        }
      ]
    },
    {
      "location_id": "790633",
      "name": "Sakura Izakaya",
      "address_obj": {
        "street1": "814 Bloor Avenue South",
        "city": "Vancouver",
        "state": "BC",
        "postalcode": "V1Y 7J1",
        "country": "Canada",
        "latitude": "49.282685",
        "longitude": "-123.100189"
      },
      "rating": "4.0",
      "num_reviews": "1662",
      "web_url": "https://www.tripadvisor.com/Restaurant_Review-g154979-d790633-Reviews-Sakura_Izakaya-Vancouver_BC.html",
      "subcategory": [
        {
          "name": "Sushi",
          "localized_name": "Sushi"
        }
      ]
    },
    {
      "location_id": "826094",
      "name": "Royal Curry House Restaurant",
      "address_obj": {
        "street1": "638 Bay Road South",
        "city": "Vancouver",
        "state": "BC",
        "postalcode": "V3T 1E2",
        "country": "Canada",
        "latitude": "49.282689",
        "longitude": "-123.114449"
      },
      "rating": "3.5",
      "num_reviews": "292",
      "web_url": "https://www.tripadvisor.com/Restaurant_Review-g154979-d826094-Reviews-Royal_Curry_House_Restaurant-Vancouver_BC.html",
      "subcategory": [
        {
          "name": "Indian",
          "localized_name": "Indian"
        }
      ]
    },
    {
      "location_id": "342772",
      "name": "Morning Coffee House",
      "address_obj": {
        "street1": "915 Yonge Avenue West",
        "city": "Vancouver",
        "state": "BC",
        "postalcode": "V1W 6B0",
        "country": "Canada",
        "latitude": "49.267945",
        "longitude": "-123.163816"
      },
      "rating": "3.6",
      "num_reviews": "55",
      "web_url": "https://www.tripadvisor.com/Restaurant_Review-g154979-d342772-Reviews-Morning_Coffee_House-Vancouver_BC.html",
      "subcategory": [
        {
          "name": "Coffee",
          "localized_name": "Coffee"
        }
      ]
    },
    {
      "location_id": "989797",
      "name": "Golden Thai Cuisine",
      "address_obj": {
        "street1": "167 Queen Avenue South",
        "city": "Vancouver",
        "state": "BC",
        "postalcode": "V1S 1P5",
        "country": "Canada",
        "latitude": "49.264356",
        "longitude": "-123.159087"
      },
      "rating": "2.9",
      "num_reviews": "86",
      "web_url": "https://www.tripadvisor.com/Restaurant_Review-g154979-d989797-Reviews-Golden_Thai_Cuisine-Vancouver_BC.html",
      "subcategory": [
        {
          "name": "Thai",
          "localized_name": "Thai"
        }
      ]
    },
    {
      "location_id": "108305",
      "name": "Spice Masala",
      "address_obj": {
        "street1": "911 Bloor Drive West",
        "city": "Vancouver",
        "state": "BC",
        "postalcode": "V1N 8I4",
        "country": "Canada",
        "latitude": "49.265573",
        "longitude": "-123.157461"
      },
      "rating": "2.6",
      "num_reviews": "91",
      "web_url": "https://www.tripadvisor.com/Restaurant_Review-g154979-d108305-Reviews-Spice_Masala-Vancouver_BC.html",
      "subcategory": [
        {
          "name": "Indian",
          "localized_name": "Indian"
        }
      ]
    },
    {
      "location_id": "859214",
      "name": "The Burger Bar Restaurant",
      "address_obj": {
        "street1": "387 College Boulevard South",
        "city": "Vancouver",
        "state": "BC",
        "postalcode": "V7G 9J8",
        "country": "Canada",
        "latitude": "49.273996",
        "longitude": "-123.164138"
      },
      "rating": "4.1",
      "num_reviews": "8",
      "web_url": "https://www.tripadvisor.com/Restaurant_Review-g154979-d859214-Reviews-The_Burger_Bar_Restaurant-Vancouver_BC.html",
      "subcategory": [
        {
          "name": "Burgers",
          "localized_name": "Burgers"
        }
      ]
    },
    {
      "location_id": "570006",
      "name": "La Cantina",
      "address_obj": {
        "street1": "513 Main Avenue North",
        "city": "Vancouver",
        "state": "BC",
        "postalcode": "V1S 8J6",
        "country": "Canada",
        "latitude": "49.276437",
        "longitude": "-123.154067"
      },
      "rating": "4.4",
      "num_reviews": "4437",
      "web_url": "https://www.tripadvisor.com/Restaurant_Review-g154979-d570006-Reviews-La_Cantina-Vancouver_BC.html",
      "subcategory": [
        {
          "name": "Mexican",
          "localized_name": "Mexican"
        }
      ]
    },
    {
      "location_id": "273212",
      "name": "Mario's Trattoria",
      "address_obj": {
        "street1": "306 Queen Boulevard East",
        "city": "Vancouver",
        "state": "BC",
        "postalcode": "V5C 4O7",
        "country": "Canada",
        "latitude": "49.278661",
        "longitude": "-123.154932"
      },
      "rating": "3.1",
      "num_reviews": "68",
      "web_url": "https://www.tripadvisor.com/Restaurant_Review-g154979-d273212-Reviews-Mario's_Trattoria-Vancouver_BC.html",
      "subcategory": [
        {
          "name": "Italian",
          "localized_name": "Italian"
        }
      ]
    },
    {
      "location_id": "902028",
      "name": "Golden Pho House",
      "address_obj": {
        "street1": "645 Dunlop Road East",
        "city": "Vancouver",
        "state": "BC",
        "postalcode": "V5X 1W1",
        "country": "Canada",
        "latitude": "49.265058",
        "longitude": "-123.15488"
      },
      "rating": "4.9",
      "num_reviews": "12",
      "web_url": "https://www.tripadvisor.com/Restaurant_Review-g154979-d902028-Reviews-Golden_Pho_House-Vancouver_BC.html",
      "subcategory": [
        {
          "name": "Vietnamese",
          "localized_name": "Vietnamese"
        }
      ]
    },
    {
      "location_id": "684785",
      "name": "Brew Coffee",
      "address_obj": {
        "street1": "630 Bloor Drive North",
        "city": "Vancouver",
        "state": "BC",
        "postalcode": "V1Q 2V3",
        "country": "Canada",
        "latitude": "49.279592",
        "longitude": "-123.160081"
      },
      "rating": "4.5",
      "num_reviews": "3",
      "web_url": "https://www.tripadvisor.com/Restaurant_Review-g154979-d684785-Reviews-Brew_Coffee-Vancouver_BC.html",
      "subcategory": [
        {
          "name": "Coffee",
          "localized_name": "Coffee"
        }
      ]
    },
    {
      "location_id": "673187",
      "name": "Barrel Brewery Restaurant",
      "address_obj": {
        "street1": "890 College Boulevard South",
        "city": "Vancouver",
        "state": "BC",
        "postalcode": "V5B 3I3",
        "country": "Canada",
        "latitude": "49.279715",
        "longitude": "-123.062695"
      },
      "rating": "3.9",
      "num_reviews": "12",
      "web_url": "https://www.tripadvisor.com/Restaurant_Review-g154979-d673187-Reviews-Barrel_Brewery_Restaurant-Vancouver_BC.html",
      "subcategory": [
        {
          "name": "Breweries",
          "localized_name": "Breweries"
        }
      ]
    },
    {
      "location_id": "577029",
      "name": "Hanoi Banh Mi",
      "address_obj": {
        "street1": "306 King Lane East",
        "city": "Vancouver",
        "state": "BC",
        "postalcode": "V8T 5X9",
        "country": "Canada",
        "latitude": "49.266369",
        "longitude": "-123.064139"
      },
      "rating": "5.0",
      "num_reviews": "343",
      "web_url": "https://www.tripadvisor.com/Restaurant_Review-g154979-d577029-Reviews-Hanoi_Banh_Mi-Vancouver_BC.html",
      "subcategory": [
        {
          "name": "Vietnamese",
          "localized_name": "Vietnamese"
        }
      ]
    },
    {
      "location_id": "303728",
      "name": "Brew Roasters",
      "address_obj": {
        "street1": "119 Pine Avenue West",
        "city": "Vancouver",
        "state": "BC",
        "postalcode": "V1J 6U2",
        "country": "Canada",
        "latitude": "49.274532",
        "longitude": "-123.076782"
      },
      "rating": "4.0",
      "num_reviews": "528",
      "web_url": "https://www.tripadvisor.com/Restaurant_Review-g154979-d303728-Reviews-Brew_Roasters-Vancouver_BC.html",
      "subcategory": [
        {
          "name": "Coffee",
          "localized_name": "Coffee"
        }
      ]
    },
    {
      "location_id": "810721",
      "name": "Hanoi Banh Mi",
      "address_obj": {
        "street1": "691 Maple Street North",
        "city": "Vancouver",
        "state": "BC",
        "postalcode": "V0H 7B9",
        "country": "Canada",
        "latitude": "49.268619",
        "longitude": "-123.064045"
      },
      "rating": "3.4",
      "num_reviews": "69",
      "web_url": "https://www.tripadvisor.com/Restaurant_Review-g154979-d810721-Reviews-Hanoi_Banh_Mi-Vancouver_BC.html",
      "subcategory": [
        {
          "name": "Vietnamese",
          "localized_name": "Vietnamese"
        }
      ]
    },
    {
      "location_id": "411727",
      "name": "Bangkok Thai Cuisine",
      "address_obj": {
        "street1": "2 Queen Road",
        "city": "Vancouver",
        "state": "BC",
        "postalcode": "V5J 3R2",
        "country": "Canada",
        "latitude": "49.266854",
        "longitude": "-123.066545"
      },
      "rating": "4.4",
      "num_reviews": "495",
      "web_url": "https://www.tripadvisor.com/Restaurant_Review-g154979-d411727-Reviews-Bangkok_Thai_Cuisine-Vancouver_BC.html",
      "subcategory": [
        {
          "name": "Thai",
          "localized_name": "Thai"
        }
      ]
    },
    {
      "location_id": "371255",
      "name": "Burger Burgers",
      "address_obj": {
        "street1": "490 Bloor Road South",
        "city": "Vancouver",
        "state": "BC",
        "postalcode": "V9U 4Q2",
        "country": "Canada",
        "latitude": "49.261616",
        "longitude": "-123.070289"
      },
      "rating": "4.2",
      "num_reviews": "17",
      "web_url": "https://www.tripadvisor.com/Restaurant_Review-g154979-d371255-Reviews-Burger_Burgers-Vancouver_BC.html",
      "subcategory": [
        {
          "name": "Burgers",
          "localized_name": "Burgers"
        }
      ]
    },
    {
      "location_id": "523086",
      "name": "Village The Oven Restaurant",
      "address_obj": {
        "street1": "202 Bloor Road",
        "city": "Vancouver",
        "state": "BC",
        "postalcode": "V9G 2Y2",
        "country": "Canada",
        "latitude": "49.273389",
        "longitude": "-123.066726"
      },
      "rating": "4.9",
      "num_reviews": "1366",
      "web_url": "https://www.tripadvisor.com/Restaurant_Review-g154979-d523086-Reviews-Village_The_Oven_Restaurant-Vancouver_BC.html",
      "subcategory": [
        {
          "name": "Bakeries",
          "localized_name": "Bakeries"
        }
      ]
    },
    {
      "location_id": "382755",
      "name": "Prime Grill",
      "address_obj": {
        "street1": "10 Dunlop Street",
        "city": "Vancouver",
        "state": "BC",
        "postalcode": "V2K 3V5",
        "country": "Canada",
        "latitude": "49.269524",
        "longitude": "-123.076668"
      },
      "rating": "3.4",
      "num_reviews": "308",
      "web_url": "https://www.tripadvisor.com/Restaurant_Review-g154979-d382755-Reviews-Prime_Grill-Vancouver_BC.html",
      "subcategory": [
        {
          "name": "Burgers",
          "localized_name": "Burgers"
        }
      ]
    },
    {
      "location_id": "296301",
      "name": "Casa Tacos Restaurant",
      "address_obj": {
        "street1": "359 Queen Street North",
        "city": "Vancouver",
        "state": "BC",
        "postalcode": "V7N 6L7",
        "country": "Canada",
        "latitude": "49.28562",
        "longitude": "-123.142023"
      },
      "rating": "2.4",
      "num_reviews": "82",
      "web_url": "https://www.tripadvisor.com/Restaurant_Review-g154979-d296301-Reviews-Casa_Tacos_Restaurant-Vancouver_BC.html",
      "subcategory": [
        {
          "name": "Mexican",
          "localized_name": "Mexican"
        }
      ]
    },
    {
      "location_id": "432027",
      "name": "Fresh Bakery",
      "address_obj": {
        "street1": "177 Queen Street East",
        "city": "Vancouver",
        "state": "BC",
        "postalcode": "V8H 1D9",
        "country": "Canada",
        "latitude": "49.292055",
        "longitude": "-123.149386"
      },
      "rating": "5.0",
      "num_reviews": "443",
      "web_url": "https://www.tripadvisor.com/Restaurant_Review-g154979-d432027-Reviews-Fresh_Bakery-Vancouver_BC.html",
      "subcategory": [
        {
          "name": "Bakeries",
          "localized_name": "Bakeries"
        }
      ]
    },
    {
      "location_id": "178721",
      "name": "Bella Ristorante",
      "address_obj": {
        "street1": "709 Bay Street",
        "city": "Vancouver",
        "state": "BC",
        "postalcode": "V8D 7W2",
        "country": "Canada",
        "latitude": "49.291867",
        "longitude": "-123.134945"
      },
      "rating": "3.3",
      "num_reviews": "802",
      "web_url": "https://www.tripadvisor.com/Restaurant_Review-g154979-d178721-Reviews-Bella_Ristorante-Vancouver_BC.html",
      "subcategory": [
        {
          "name": "Italian",
          "localized_name": "Italian"
        }
      ]
    },
    {
      "location_id": "329812",
      "name": "Bangkok Thai Cuisine",
      "address_obj": {
        "street1": "440 Main Road East",
        "city": "Vancouver",
        "state": "BC",
        "postalcode": "V4D 1P0",
        "country": "Canada",
        "latitude": "49.291801",
        "longitude": "-123.134784"
      },
      "rating": "3.9",
      "num_reviews": "272",
      "web_url": "https://www.tripadvisor.com/Restaurant_Review-g154979-d329812-Reviews-Bangkok_Thai_Cuisine-Vancouver_BC.html",
      "subcategory": [
        {
          "name": "Thai",
          "localized_name": "Thai"
        }
      ]
    },
    {
      "location_id": "311575",
      "name": "Zen Izakaya Restaurant",
      "address_obj": {
        "street1": "825 Yonge Lane South",
        "city": "Vancouver",
        "state": "BC",
        "postalcode": "V4X 0X9",
        "country": "Canada",
        "latitude": "49.294053",
        "longitude": "-123.137408"
      },
      "rating": "4.5",
      "num_reviews": "222",
      "web_url": "https://www.tripadvisor.com/Restaurant_Review-g154979-d311575-Reviews-Zen_Izakaya_Restaurant-Vancouver_BC.html",
      "subcategory": [
        {
          "name": "Sushi",
          "localized_name": "Sushi"
        }
      ]
    },
    {
      "location_id": "478276",
      "name": "Bangkok Thai Kitchen Restaurant",
      "address_obj": {
        "street1": "641 College Road South",
        "city": "Vancouver",
        "state": "BC",
        "postalcode": "V8R 9I7",
        "country": "Canada",
        "latitude": "49.28896",
        "longitude": "-123.132915"
      },
      "rating": "3.9",
      "num_reviews": "0",
      "web_url": "https://www.tripadvisor.com/Restaurant_Review-g154979-d478276-Reviews-Bangkok_Thai_Kitchen_Restaurant-Vancouver_BC.html",
      "subcategory": [
        {
          "name": "Thai",
          "localized_name": "Thai"
        }
      ]
    },
    {
      "location_id": "158059",
      "name": "Tokyo Izakaya",
      "address_obj": {
        "street1": "204 Main Road East",
        "city": "Vancouver",
        "state": "BC",
        "postalcode": "V0T 1K2",
        "country": "Canada",
        "latitude": "49.299784",
        "longitude": "-123.149835"
      },
      "rating": "4.8",
      "num_reviews": "0",
      "web_url": "https://www.tripadvisor.com/Restaurant_Review-g154979-d158059-Reviews-Tokyo_Izakaya-Vancouver_BC.html",
      "subcategory": [
        {
          "name": "Sushi",
          "localized_name": "Sushi"
        }
      ]
    },
    {
      "location_id": "142992",
      "name": "Mumbai Masala Restaurant",
      "address_obj": {
        "street1": "196 Pine Avenue West",
        "city": "Vancouver",
        "state": "BC",
        "postalcode": "V8A 6N9",
        "country": "Canada",
        "latitude": "49.294006",
        "longitude": "-123.142882"
      },
      "rating": "5.0",
      "num_reviews": "18",
      "web_url": "https://www.tripadvisor.com/Restaurant_Review-g154979-d142992-Reviews-Mumbai_Masala_Restaurant-Vancouver_BC.html",
      "subcategory": [
        {
          "name": "Indian",
          "localized_name": "Indian"
        }
      ]
    },
    {
      "location_id": "915302",
      "name": "Fresh Bread Co. Restaurant",
      "address_obj": {
        "street1": "912 Maple Lane South",
        "city": "Vancouver",
        "state": "BC",
        "postalcode": "V5C 7L9",
        "country": "Canada",
        "latitude": "49.286398",
        "longitude": "-123.130386"
      },
      "rating": "3.7",
      "num_reviews": "45",
      "web_url": "https://www.tripadvisor.com/Restaurant_Review-g154979-d915302-Reviews-Fresh_Bread_Co._Restaurant-Vancouver_BC.html",
      "subcategory": [
        {
          "name": "Bakeries",
          "localized_name": "Bakeries"
        }
      ]
    },
    {
      "location_id": "107991",
      "name": "Los Burrito Bar",
      "address_obj": {
        "street1": "581 Main Lane North",
        "city": "Vancouver",
        "state": "BC",
        "postalcode": "V2G 6R4",
        "country": "Canada",
        "latitude": "49.286586",
        "longitude": "-123.140762"
      },
      "rating": "4.5",
      "num_reviews": "38",
      "web_url": "https://www.tripadvisor.com/Restaurant_Review-g154979-d107991-Reviews-Los_Burrito_Bar-Vancouver_BC.html",
      "subcategory": [
        {
          "name": "Mexican",
          "localized_name": "Mexican"
        }
      ]
    },
    {
      "location_id": "831691",
      "name": "The Burgers",
      "address_obj": {
        "street1": "441 Oak Lane",
        "city": "Vancouver",
        "state": "BC",
        "postalcode": "V2O 0Q3",
        "country": "Canada",
        "latitude": "49.290874",
        "longitude": "-123.134068"
      },
      "rating": "4.5",
      "num_reviews": "68",
      "web_url": "https://www.tripadvisor.com/Restaurant_Review-g154979-d831691-Reviews-The_Burgers-Vancouver_BC.html",
      "subcategory": [
        {
          "name": "Burgers",
          "localized_name": "Burgers"
        }
      ]
    },
    {
      "location_id": "978662",
      "name": "Ground Coffee Co. Restaurant",
      "address_obj": {
        "street1": "960 Maple Lane South",
        "city": "Vancouver",
        "state": "BC",
        "postalcode": "V0H 9C6",
        "country": "Canada",
        "latitude": "49.293724",
        "longitude": "-123.145017"
      },
      "rating": "4.4",
      "num_reviews": "735",
      "web_url": "https://www.tripadvisor.com/Restaurant_Review-g154979-d978662-Reviews-Ground_Coffee_Co._Restaurant-Vancouver_BC.html",
      "subcategory": [
        {
          "name": "Coffee",
          "localized_name": "Coffee"
        }
      ]
    },
    {
      "location_id": "1234567",
      "name": "Rainbow Drive-In",
      "address_obj": {
        "street1": "3308 Kanaina Avenue",
        "city": "Honolulu",
        "state": "HI",
        "country": "United States",
        "postalcode": "96815",
        "address_string": "3308 Kanaina Avenue, Honolulu, HI 96815"
      },
      "latitude": "21.2831",
      "longitude": "-157.8142",
      "rating": "4.5",
      "num_reviews": "850",
      "price_level": "$$",
      "subcategory": [
        {
          "name": "Hawaiian"
        },
        {
          "name": "Breakfast Brunch"
        }
      ]
    },
    {
      "location_id": "1234568",
      "name": "Marukame Udon",
      "address_obj": {
        "street1": "2310 Kuhio Avenue",
        "city": "Honolulu",
        "state": "HI",
        "country": "United States",
        "postalcode": "96815",
        "address_string": "2310 Kuhio Avenue, Honolulu, HI 96815"
      },
      "latitude": "21.2793",
      "longitude": "-157.8266",
      "rating": "4.6",
      "num_reviews": "1200",
      "price_level": "$",
      "subcategory": [
        {
          "name": "Japanese"
        },
        {
          "name": "Udon"
        },
        {
          "name": "Ramen"
        }
      ]
    },
    {
      "location_id": "1234569",
      "name": "Leonard's Bakery",
      "address_obj": {
        "street1": "933 Kapahulu Avenue",
        "city": "Honolulu",
        "state": "HI",
        "country": "United States",
        "postalcode": "96816",
        "address_string": "933 Kapahulu Avenue, Honolulu, HI 96816"
      },
      "latitude": "21.2792",
      "longitude": "-157.815",
      "rating": "4.7",
      "num_reviews": "920",
      "price_level": "$$",
      "subcategory": [
        {
          "name": "Bakeries"
        },
        {
          "name": "Desserts"
        },
        {
          "name": "Portuguese"
        }
      ]
    },
    {
      "location_id": "1234570",
      "name": "Ono Seafood",
      "address_obj": {
        "street1": "747 Kapahulu Avenue #4",
        "city": "Honolulu",
        "state": "HI",
        "country": "United States",
        "postalcode": "96816",
        "address_string": "747 Kapahulu Avenue #4, Honolulu, HI 96816"
      },
      "latitude": "21.278",
      "longitude": "-157.8165",
      "rating": "4.8",
      "num_reviews": "1450",
      "price_level": "$$",
      "subcategory": [
        {
          "name": "Poke"
        },
        {
          "name": "Seafood"
        },
        {
          "name": "Hawaiian"
        }
      ]
    },
    {
      "location_id": "1234571",
      "name": "Helena's Hawaiian Food",
      "address_obj": {
        "street1": "1240 North School Street",
        "city": "Honolulu",
        "state": "HI",
        "country": "United States",
        "postalcode": "96817",
        "address_string": "1240 North School Street, Honolulu, HI 96817"
      },
      "latitude": "21.3255",
      "longitude": "-157.8598",
      "rating": "4.5",
      "num_reviews": "680",
      "price_level": "$$",
      "subcategory": [
        {
          "name": "Hawaiian"
        },
        {
          "name": "Traditional"
        }
      ]
    },
    {
      "location_id": "1234572",
      "name": "Koko Head Cafe",
      "address_obj": {
        "street1": "1145C 12th Avenue",
        "city": "Honolulu",
        "state": "HI",
        "country": "United States",
        "postalcode": "96816",
        "address_string": "1145C 12th Avenue, Honolulu, HI 96816"
      },
      "latitude": "21.2821",
      "longitude": "-157.8021",
      "rating": "4.6",
      "num_reviews": "780",
      "price_level": "$$",
      "subcategory": [
        {
          "name": "Breakfast Brunch"
        },
        {
          "name": "Cafes"
        },
        {
          "name": "Hawaiian"
        }
      ]
    },
    {
      "location_id": "1234573",
      "name": "Roy's Waikiki",
      "address_obj": {
        "street1": "226 Lewers Street",
        "city": "Honolulu",
        "state": "HI",
        "country": "United States",
        "postalcode": "96815",
        "address_string": "226 Lewers Street, Honolulu, HI 96815"
      },
      "latitude": "21.2789",
      "longitude": "-157.8287",
      "rating": "4.4",
      "num_reviews": "920",
      "price_level": "$$$$",
      "subcategory": [
        {
          "name": "Hawaiian"
        },
        {
          "name": "Seafood"
        },
        {
          "name": "Fusion"
        }
      ]
    },
    {
      "location_id": "1234574",
      "name": "The Pig and The Lady",
      "address_obj": {
        "street1": "83 North King Street",
        "city": "Honolulu",
        "state": "HI",
        "country": "United States",
        "postalcode": "96817",
        "address_string": "83 North King Street, Honolulu, HI 96817"
      },
      "latitude": "21.3078",
      "longitude": "-157.8604",
      "rating": "4.7",
      "num_reviews": "1100",
      "price_level": "$$",
      "subcategory": [
        {
          "name": "Vietnamese"
        },
        {
          "name": "Asian Fusion"
        }
      ]
    },
    {
      "location_id": "1234575",
      "name": "Haleiwa Joe's Seafood Grill",
      "address_obj": {
        "street1": "66-011 Kamehameha Highway",
        "city": "Haleiwa",
        "state": "HI",
        "country": "United States",
        "postalcode": "96712",
        "address_string": "66-011 Kamehameha Highway, Haleiwa, HI 96712"
      },
      "latitude": "21.5943",
      "longitude": "-158.1048",
      "rating": "4.5",
      "num_reviews": "650",
      "price_level": "$$$",
      "subcategory": [
        {
          "name": "Seafood"
        },
        {
          "name": "American"
        },
        {
          "name": "Hawaiian"
        }
      ]
    },
    {
      "location_id": "1234576",
      "name": "Giovanni's Shrimp Truck",
      "address_obj": {
        "street1": "66-472 Kamehameha Highway",
        "city": "Haleiwa",
        "state": "HI",
        "country": "United States",
        "postalcode": "96712",
        "address_string": "66-472 Kamehameha Highway, Haleiwa, HI 96712"
      },
      "latitude": "21.5569",
      "longitude": "-158.0292",
      "rating": "4.3",
      "num_reviews": "1850",
      "price_level": "$$",
      "subcategory": [
        {
          "name": "Seafood"
        },
        {
          "name": "Food Trucks"
        },
        {
          "name": "Hawaiian"
        }
      ]
    },
    {
      "location_id": "1234577",
      "name": "Musubi Cafe Iyasume",
      "address_obj": {
        "street1": "2427 Kuhio Avenue",
        "city": "Honolulu",
        "state": "HI",
        "country": "United States",
        "postalcode": "96815",
        "address_string": "2427 Kuhio Avenue, Honolulu, HI 96815"
      },
      "latitude": "21.2782",
      "longitude": "-157.8276",
      "rating": "4.5",
      "num_reviews": "720",
      "price_level": "$",
      "subcategory": [
        {
          "name": "Japanese"
        },
        {
          "name": "Hawaiian"
        },
        {
          "name": "Breakfast Brunch"
        }
      ]
    },
    {
      "location_id": "1234578",
      "name": "Cinnamon's Restaurant",
      "address_obj": {
        "street1": "315 Uluniu Street",
        "city": "Kailua",
        "state": "HI",
        "country": "United States",
        "postalcode": "96734",
        "address_string": "315 Uluniu Street, Kailua, HI 96734"
      },
      "latitude": "21.3967",
      "longitude": "-157.7401",
      "rating": "4.6",
      "num_reviews": "890",
      "price_level": "$$",
      "subcategory": [
        {
          "name": "Breakfast Brunch"
        },
        {
          "name": "American"
        }
      ]
    },
    {
      "location_id": "1234579",
      "name": "Ted's Bakery",
      "address_obj": {
        "street1": "59-024 Kamehameha Highway",
        "city": "Haleiwa",
        "state": "HI",
        "country": "United States",
        "postalcode": "96712",
        "address_string": "59-024 Kamehameha Highway, Haleiwa, HI 96712"
      },
      "latitude": "21.6436",
      "longitude": "-158.0525",
      "rating": "4.4",
      "num_reviews": "1320",
      "price_level": "$$",
      "subcategory": [
        {
          "name": "Bakeries"
        },
        {
          "name": "Desserts"
        },
        {
          "name": "Cafes"
        }
      ]
    },
    {
      "location_id": "1234580",
      "name": "Nico's Pier 38",
      "address_obj": {
        "street1": "1129 North Nimitz Highway",
        "city": "Honolulu",
        "state": "HI",
        "country": "United States",
        "postalcode": "96817",
        "address_string": "1129 North Nimitz Highway, Honolulu, HI 96817"
      },
      "latitude": "21.3093",
      "longitude": "-157.8677",
      "rating": "4.6",
      "num_reviews": "1180",
      "price_level": "$$",
      "subcategory": [
        {
          "name": "Seafood"
        },
        {
          "name": "Poke"
        },
        {
          "name": "Hawaiian"
        }
      ]
    },
    {
      "location_id": "1234581",
      "name": "Hula Grill Waikiki",
      "address_obj": {
        "street1": "2335 Kalakaua Avenue",
        "city": "Honolulu",
        "state": "HI",
        "country": "United States",
        "postalcode": "96815",
        "address_string": "2335 Kalakaua Avenue, Honolulu, HI 96815"
      },
      "latitude": "21.2755",
      "longitude": "-157.8255",
      "rating": "4.3",
      "num_reviews": "980",
      "price_level": "$$$",
      "subcategory": [
        {
          "name": "Hawaiian"
        },
        {
          "name": "Seafood"
        },
        {
          "name": "American"
        }
      ]
    }
  ]
}